stop_id,stop_code,stop_name,stop_desc,stop_lat,stop_lon,zone_id,stop_url,location_type,parent_station,wheelchair_boarding
110712,11-712,St-Louis / M.-d'Youville,,46.800240,-71.187320,,,,,1
130143,13-143,Saint-Georges / Proulx,,46.774727,-71.199710,,,,,
990142,99-142,École M.-Mallet - Déziel,,46.809770,-71.184755,,,,,
990143,99-143,École M.-Mallet - Déziel,,46.810112,-71.184566,,,,,
990144,99-144,École M.-Mallet - Déziel,,46.810307,-71.184460,,,,,
990145,99-145,École M.-Mallet - Déziel,,46.810455,-71.184379,,,,,
20620,,Station Nérée-Tremblay,,46.785897,-71.280547,,,,,1
120373,12-373,Collège de Lévis - Mgr-Gosselin,,46.811234,-71.180109,,,,,
10010,01-010,Terminus Lagueux,,46.671922,-71.340939,,,,,1
3131,3131,A.-Desjardins / O.-J.-Morin,,46.800120,-71.173182,,,,,1
650325,65-325,des Érables / Lemieux,,46.585690,-71.210326,,,,,
650315,65-315,des Érables / de Brébeuf,,46.584501,-71.208764,,,,,
650285,65-285,Marquette / des Ormeaux,,46.584920,-71.205380,,,,,
650275,65-275,Cartier / de Brébeuf,,46.585607,-71.206832,,,,,
650265,65-265,Cartier / Létourneau,,46.586780,-71.208480,,,,,
650255,65-255,Cartier - arrêt 65-0255,,46.588460,-71.206529,,,,,
650247,65-247,Cartier / Radisson,,46.590127,-71.204058,,,,,
650235,65-235,PRB St-Lambert-de-Lauzon,,46.591479,-71.205769,,,,,
650225,65-225,du Pont - arrêt 65-0225,,46.590535,-71.207153,,,,,
650215,65-215,des Érables / du Pont,,46.587687,-71.211746,,,,,
7258,7258,Plante / des Rivières,,46.716570,-71.299110,,,,,
220605,22-605,Plante / V.-Crêpes,,46.714974,-71.301440,,,,,
8430,8430,Station H.-Pelletier,,46.702473,-71.286598,,,,,
8426,8426,de la Chaudière / du G.Tronc,,46.699805,-71.284563,,,,,
8081,8081,de St-Denis / du Bourgeois,,46.688494,-71.289150,,,,,
8083,8083,Bibliothèque C.-Volumes,,46.687702,-71.292216,,,,,
8085,8085,de St-Denis / Lapointe,,46.688153,-71.294942,,,,,
8087,8087,de St-Denis / de l'Aiglon,,46.690610,-71.296614,,,,,
8089,8089,de St-Denis / des G.-Ducs,,46.692726,-71.298696,,,,,
8401,8401,des Hiboux / des Hirondelles,,46.693674,-71.298545,,,,,
8405,8405,des Hiboux / du Verdier,,46.695283,-71.295517,,,,,
8409,8409,des Hiboux / du Bourgeois,,46.695266,-71.293893,,,,,
8406,8406,des Hiboux / du Verdier,,46.695357,-71.295619,,,,,
8402,8402,des Hiboux / des Hirondelles,,46.693838,-71.298506,,,,,
8090,8090,de St-Denis / des G.-Ducs,,46.692820,-71.298992,,,,,
8088,8088,de St-Denis / des Colombes,,46.690678,-71.296934,,,,,
8086,8086,de St-Denis / Lapointe,,46.688134,-71.295176,,,,,
8084,8084,Bibliothèque C.-Volumes,,46.687471,-71.292646,,,,,
8082,8082,de St-Denis / du Bourgeois,,46.688420,-71.288939,,,,,
8080,8080,de St-Denis / P.-Roy,,46.689027,-71.285309,,,,,
8425,8425,Station de la Chaudière,,46.700002,-71.284598,,,,,
8429,8429,Station H.-Pelletier,,46.702586,-71.286982,,,,,
8438,8438,des Frênes / du Domaine,,46.705471,-71.291345,,,,,
650010,65-010,du Parc / des Éperviers,,46.567197,-71.253191,,,,,
650020,65-020,des Éperviers / du P.-Duc,,46.564349,-71.257378,,,,,
650030,65-030,des Éperviers - arrêt 65-0030,,46.562220,-71.260665,,,,,
650040,65-040,des Éperviers / du Grand-Duc,,46.560765,-71.263264,,,,,
650050,65-050,des Éperviers - arrêt 65-0050,,46.558447,-71.266604,,,,,
650060,65-060,des Éperviers / des Hirondelles,,46.557787,-71.269134,,,,,
650070,65-070,des Hirondelles / Iberville,,46.556789,-71.271104,,,,,
650080,65-080,Iberville / des Chouettes,,46.554956,-71.268811,,,,,
650090,65-090,Iberville / du Pont,,46.552306,-71.264921,,,,,
650100,65-100,du Pont / des Bruants,,46.554460,-71.262073,,,,,
650110,65-110,du Pont / des Bécassines,,46.556759,-71.258767,,,,,
650120,65-120,du Pont / des Bouvreuils,,46.558763,-71.255890,,,,,
650130,65-130,du Pont - arrêt 65-0130,,46.561669,-71.251722,,,,,
650140,65-140,du Pont / du Parc,,46.563716,-71.248759,,,,,
650150,65-150,du Pont / des Alouettes,,46.567109,-71.243745,,,,,
650160,65-160,du Pont / des Aigrettes,,46.569415,-71.240447,,,,,
650170,65-170,du Pont / St-Aimé,,46.574880,-71.232440,,,,,
650180,65-180,du Pont - arrêt 65-0180,,46.578999,-71.226541,,,,,
650190,65-190,Josée / Sylvain,,46.581399,-71.222341,,,,,
650200,65-200,Sylvain - arrêt 65-0200,,46.582210,-71.220370,,,,,
650210,65-210,Sylvain / Marie,,46.583781,-71.218027,,,,,
650220,65-220,Bellevue / du Pont,,46.585020,-71.216999,,,,,
650230,65-230,Église de Saint-Lambert,,46.586753,-71.211179,,,,,
650240,65-240,du Pont - arrêt 65-0240,,46.590550,-71.206892,,,,,
650250,65-250,PRB St-Lambert-de-Lauzon,,46.591259,-71.205840,,,,,
650270,65-270,Cartier - arrêt 65-0270,,46.588644,-71.206267,,,,,
650280,65-280,Cartier / Létourneau,,46.586619,-71.208475,,,,,
650290,65-290,Cartier / de Brébeuf,,46.585509,-71.207019,,,,,
650300,65-300,des Ormeaux / Marquette,,46.585000,-71.205469,,,,,
650320,65-320,Joliette / des Érables,,46.582870,-71.207493,,,,,
650430,65-430,Joliette / des Érables,,46.582941,-71.207169,,,,,
650440,65-440,des Érables / de Brébeuf,,46.584320,-71.208359,,,,,
650450,65-450,des Érables / Létourneau,,46.585618,-71.210072,,,,,
650460,65-460,Église de Saint-Lambert,,46.587152,-71.211377,,,,,
650470,65-470,des Érables / des Cèdres,,46.589740,-71.213196,,,,,
650480,65-480,des Érables - arrêt 65-0480,,46.591748,-71.215708,,,,,
650490,65-490,des Érables / des Saules,,46.592981,-71.217764,,,,,
650500,65-500,des Érables / des Chênes,,46.593946,-71.219340,,,,,
650510,65-510,des Érables - arrêt 65-0510,,46.595799,-71.222429,,,,,
650520,65-520,des Érables - arrêt 65-0520,,46.597569,-71.227660,,,,,
650530,65-530,des Érables - arrêt 65-0530,,46.599081,-71.233800,,,,,
650540,65-540,des Érables - arrêt 65-0540,,46.601641,-71.237641,,,,,
650550,65-550,des Érables / Hébert,,46.604467,-71.237999,,,,,
650560,65-560,des Érables / des Lilas,,46.607690,-71.238468,,,,,
650570,65-570,des Érables / des Pins,,46.613435,-71.236027,,,,,
650580,65-580,des Érables / Beauséjour,,46.622579,-71.229175,,,,,
650590,65-590,des Érables / des Îles Sud,,46.629672,-71.229747,,,,,
650600,65-600,des Érables / des Îles Nord,,46.632359,-71.229862,,,,,
650610,65-610,des Érables / du Repos,,46.634604,-71.231038,,,,,
650620,65-620,des Érables / Bouffard,,46.636350,-71.232207,,,,,
650650,65-650,St-Augustin - arrêt 65-0650,,46.645134,-71.238064,,,,,
650660,65-660,St-Augustin / Vieux Chemin,,46.647525,-71.240104,,,,,
650535,65-535,St-Augustin / Vieux Chemin,,46.647643,-71.240473,,,,,
650525,65-525,St-Augustin - arrêt 65-0525,,46.644564,-71.237847,,,,,
650630,65-630,des Érables / des Cerisiers,,46.638145,-71.233474,,,,,
650640,65-640,des Érables - arrêt 65-0640,,46.641745,-71.234060,,,,,
650515,65-515,des Érables - arrêt 65-0515,,46.642681,-71.235080,,,,,
650505,65-505,des Érables / des Cerisiers,,46.638293,-71.233652,,,,,
650495,65-495,des Érables / Bouffard,,46.636520,-71.232431,,,,,
650485,65-485,des Érables / du Repos,,46.634819,-71.231292,,,,,
650475,65-475,des Érables / des Îles Nord,,46.632491,-71.230006,,,,,
650465,65-465,des Érables / des Îles Sud,,46.629910,-71.229884,,,,,
650455,65-455,des Érables / Beauséjour,,46.622831,-71.229319,,,,,
650445,65-445,des Érables / des Pins,,46.613751,-71.235808,,,,,
650435,65-435,des Érables / des Lilas,,46.607884,-71.238655,,,,,
650425,65-425,des Érables / Hébert,,46.604595,-71.238074,,,,,
650415,65-415,des Érables - arrêt 65-0415,,46.601328,-71.237755,,,,,
650405,65-405,des Érables - arrêt 65-0405,,46.598915,-71.233387,,,,,
650395,65-395,des Érables - arrêt 65-0395,,46.597551,-71.228123,,,,,
650385,65-385,des Érables - arrêt 65-0385,,46.595859,-71.222874,,,,,
650375,65-375,des Érables / des Chênes,,46.594040,-71.219746,,,,,
650365,65-365,des Érables / des Saules,,46.593057,-71.218080,,,,,
650355,65-355,des Érables - arrêt 65-0355,,46.591728,-71.215940,,,,,
650345,65-345,des Érables / des Cèdres,,46.589749,-71.213392,,,,,
650335,65-335,des Érables / du Pont,,46.587711,-71.212031,,,,,
650205,65-205,Bellevue / du Pont,,46.584920,-71.217025,,,,,
650195,65-195,Sylvain / Marie,,46.584058,-71.217850,,,,,
650185,65-185,Sylvain - arrêt 65-0185,,46.582280,-71.220437,,,,,
650175,65-175,Josée / Sylvain,,46.581450,-71.222239,,,,,
650165,65-165,du Pont - arrêt 65-0165,,46.579103,-71.226625,,,,,
650155,65-155,du Pont / St-Aimé,,46.575080,-71.232282,,,,,
650145,65-145,du Pont / des Aigrettes,,46.569567,-71.240335,,,,,
650135,65-135,du Pont / des Alouettes,,46.567340,-71.243749,,,,,
650125,65-125,du Pont / du Parc,,46.563937,-71.248645,,,,,
650115,65-115,du Pont - arrêt 65-0115,,46.561153,-71.252709,,,,,
650105,65-105,du Pont / des Bouvreuils,,46.558968,-71.255868,,,,,
650095,65-095,du Pont / des Bécassines,,46.556956,-71.258795,,,,,
650085,65-085,du Pont / Iberville,,46.552386,-71.264802,,,,,
650075,65-075,Iberville / des Chouettes,,46.554910,-71.268463,,,,,
650065,65-065,Iberville / des Hirondelles,,46.556612,-71.270993,,,,,
650055,65-055,des Hirondelles / des Éperviers,,46.557727,-71.269309,,,,,
650045,65-045,des Éperviers - arrêt 65-0045,,46.558172,-71.266735,,,,,
650035,65-035,des Éperviers / du Grand-Duc,,46.560467,-71.263264,,,,,
650025,65-025,des Éperviers - arrêt 65-0025,,46.562180,-71.260366,,,,,
650015,65-015,des Éperviers / du Petit-Duc,,46.564042,-71.257458,,,,,
650005,65-005,du Parc / des Éperviers,,46.567280,-71.252713,,,,,
190090,19-090,St-Augustin / Vieux Chemin,,46.649538,-71.241534,,,,,
220050,22-050,Filteau - arrêt 22-0050,,46.667183,-71.375178,,,,,
220060,22-060,Filteau / de l'Érablière,,46.668878,-71.370336,,,,,
220090,22-090,Vallières / Valroc,,46.671496,-71.368736,,,,,
220100,22-100,Vallières / Jamin,,46.670676,-71.371753,,,,,
220110,22-110,Jamin / Joce,,46.671568,-71.373281,,,,,
220120,22-120,Joce / Valroc,,46.673132,-71.370509,,,,,
220130,22-130,J.-R.-Tardif / Joce,,46.673790,-71.368697,,,,,
220140,22-140,J.-R.-Tardif / Vallières,,46.672346,-71.366899,,,,,
220150,22-150,Filteau / J.-R.-Tardif,,46.670809,-71.364746,,,,,
220160,22-160,Filteau / de Turin,,46.672140,-71.361045,,,,,
220240,22-240,de Nantes / Chouinard,,46.677011,-71.350760,,,,,
220260,22-260,Filteau / des Carrières,,46.678639,-71.350036,,,,,
220280,22-280,Olivier - arrêt 22-0280,,46.680557,-71.337234,,,,,
220290,22-290,Olivier - arrêt 22-0290,,46.681789,-71.333927,,,,,
220300,22-300,Olivier - arrêt 22-0300,,46.683921,-71.329533,,,,,
220310,22-310,Olivier - arrêt 22-0310,,46.685511,-71.326332,,,,,
220320,22-320,Olivier - arrêt 22-0320,,46.687318,-71.322656,,,,,
220330,22-330,Olivier - arrêt 22-0330,,46.689118,-71.319046,,,,,
220340,22-340,Olivier / F.-Pelletier,,46.690087,-71.317078,,,,,
220350,22-350,Olivier - arrêt 22-0350,,46.691657,-71.313947,,,,,
220360,22-360,Parc industriel de Bernières-Nord,,46.692780,-71.311665,,,,,
220370,22-370,Olivier / A.-Desrochers,,46.694072,-71.309050,,,,,
220380,22-380,Olivier - arrêt 22-0380,,46.695634,-71.305912,,,,,
220390,22-390,Olivier / J.-A.-Craig,,46.697014,-71.303111,,,,,
220400,22-400,Olivier / W.-G.-Ross,,46.698654,-71.301037,,,,,
220410,22-410,Olivier - arrêt 22-0410,,46.705398,-71.298504,,,,,
220420,22-420,de la Seine / Olivier,,46.708485,-71.298787,,,,,
220430,22-430,de la Seine / du Mans,,46.708116,-71.299768,,,,,
220490,22-490,de la Seine / de Bray,,46.705672,-71.305284,,,,,
220500,22-500,de la Seine / de la Sorbonne,,46.704681,-71.307588,,,,,
220510,22-510,de la Seine / de Limoges,,46.703142,-71.310129,,,,,
220520,22-520,de Limoges / de Fribourg,,46.704953,-71.311717,,,,,
220530,22-530,de Limoges / de Lausanne,,46.706496,-71.313154,,,,,
220540,22-540,V.-Crêpes / de la Sorbonne,,46.707666,-71.312139,,,,,
220550,22-550,V.-Crêpes / de Picardie,,46.708918,-71.307605,,,,,
220560,22-560,de Picardie / Plante,,46.710295,-71.309138,,,,,
220570,22-570,Plante / d'Évreux,,46.711716,-71.307112,,,,,
220580,22-580,Plante / Gosselin,,46.713294,-71.304774,,,,,
7962,7962,Cayer / M.-Victorin,,46.733834,-71.297218,,,,,
7726,7726,du Château / du G.-Bassin,,46.734880,-71.298723,,,,,
7722,7722,du Château / des Geais,,46.735774,-71.300109,,,,,
7718,7718,de la Corniche / du Château,,46.738757,-71.299495,,,,,
7714,7714,de la Corniche / des H.-Herbes,,46.737640,-71.302574,,,,,
7710,7710,de la Corniche / des Mésanges,,46.736619,-71.305178,,,,,
7706,7706,de la Corniche / Forestier,,46.735348,-71.308064,,,,,
7702,7702,Forestier / des Cormorans,,46.734383,-71.307075,,,,,
7294,7294,Forestier / des Harfangs,,46.732138,-71.303771,,,,,
7884,7884,M.-Victorin / De Beaurivage,,46.725719,-71.319237,,,,,
7880,7880,M.-Victorin / de l'Estran,,46.724514,-71.325233,,,,,
7820,7820,M.-Victorin / de la P.-à-Basile,,46.722780,-71.329612,,,,,
7816,7816,M.-Victorin / des Oies,,46.721413,-71.331916,,,,,
7812,7812,M.-Victorin / des Sternes,,46.719902,-71.334125,,,,,
7808,7808,M.-Victorin - arrêt 7808,,46.718350,-71.338728,,,,,
7804,7804,M.-Victorin / Méthot,,46.717010,-71.343164,,,,,
7800,7800,Méthot / du Houppier,,46.715992,-71.343080,,,,,
7396,7396,Méthot / des Pruches,,46.714731,-71.341392,,,,,
7388,7388,des Mélèzes / Méthot,,46.712619,-71.338438,,,,,
7380,7380,des Mélèzes / de l'Aubelle,,46.711825,-71.343745,,,,,
7872,7872,M.-Victorin / des Érables,,46.715030,-71.350735,,,,,
7368,7368,du Rocher / des Pins,,46.711891,-71.349689,,,,,
7364,7364,du Rocher / du Parc,,46.710642,-71.351606,,,,,
7360,7360,des Genévriers / des Fusains,,46.710974,-71.353506,,,,,
7356,7356,M.-Victorin / des Genévriers,,46.713155,-71.356844,,,,,
7352,7352,M.-Victorin / des Morillons,,46.712208,-71.359534,,,,,
7348,7348,M.-Victorin / des Gélinottes,,46.711019,-71.362149,,,,,
7344,7344,M.-Victorin - arrêt 7344,,46.708619,-71.368223,,,,,
7340,7340,M.-Victorin / des Herbiers,,46.707832,-71.371529,,,,,
7336,7336,M.-Victorin / L.-Provancher,,46.707028,-71.375984,,,,,
7332,7332,M.-Victorin / du Quai,,46.705969,-71.380563,,,,,
7328,7328,M.-Victorin / de la Vallée,,46.704058,-71.385254,,,,,
7324,7324,M.-Victorin / du Button,,46.702479,-71.389399,,,,,
7320,7320,M.-Victorin / A.-Gosselin,,46.701745,-71.392051,,,,,
7316,7316,M.-Victorin / de l'Orée,,46.700965,-71.395157,,,,,
7301,7301,des Pionniers / Baronet,,46.701535,-71.398122,,,,,
7303,7303,des Pionniers / de St-Nicolas,,46.702367,-71.400161,,,,,
7305,7305,des Pionniers / A.-Bergeron,,46.701727,-71.404139,,,,,
7307,7307,des Pionniers / de la Chapelle,,46.701407,-71.406197,,,,,
7309,7309,des Pionniers / M.-Victorin,,46.701032,-71.409637,,,,,
7311,7311,Arrêt 7311,,46.700591,-71.406394,,,,,
7313,7313,M.-Victorin / de la Sommière,,46.700678,-71.401307,,,,,
7315,7315,des Pionniers / M.-Victorin,,46.700719,-71.397868,,,,,
220010,22-010,de la Lisière / des Charmilles,,46.668398,-71.387210,,,,,
220020,22-020,des Charmilles / Hamel,,46.666542,-71.384439,,,,,
220030,22-030,des Charmilles / Filteau,,46.664677,-71.382895,,,,,
220040,22-040,Filteau - arrêt 22-0040,,46.665439,-71.380040,,,,,
7317,7317,M.-Victorin / de l'Orée,,46.700801,-71.395437,,,,,
7321,7321,M.-Victorin / A.-Gosselin,,46.701485,-71.392453,,,,,
7325,7325,M.-Victorin / du Button,,46.702115,-71.390155,,,,,
7329,7329,M.-Victorin / de la Vallée,,46.703671,-71.385697,,,,,
7333,7333,M.-Victorin / du Quai,,46.705783,-71.380733,,,,,
7337,7337,M.-Victorin / L.-Provancher,,46.706896,-71.376168,,,,,
7341,7341,M.-Victorin / des Herbiers,,46.707708,-71.371278,,,,,
7345,7345,M.-Victorin - arrêt 7345,,46.708627,-71.367700,,,,,
7349,7349,M.-Victorin / des Gélinottes,,46.710879,-71.362117,,,,,
7353,7353,M.-Victorin / des Morillons,,46.712060,-71.359604,,,,,
7357,7357,M.-Victorin / des Genévriers,,46.713026,-71.356598,,,,,
7361,7361,des Genévriers / des Fusains,,46.710995,-71.353812,,,,,
7365,7365,du Rocher / du Parc,,46.710433,-71.351673,,,,,
7369,7369,du Rocher / des Pins,,46.711693,-71.349749,,,,,
7373,7373,du Rocher / des Érables,,46.712691,-71.348211,,,,,
7381,7381,des Mélèzes / de l'Aubelle,,46.711972,-71.344221,,,,,
7389,7389,des Mélèzes / Méthot,,46.712431,-71.338276,,,,,
7397,7397,Méthot / des Pruches,,46.714706,-71.340930,,,,,
7801,7801,Méthot / de Honfleur,,46.715892,-71.342595,,,,,
7805,7805,M.-Victorin / Méthot,,46.716883,-71.342984,,,,,
7809,7809,M.-Victorin - arrêt 7809,,46.718234,-71.338721,,,,,
7813,7813,M.-Victorin / des Sternes,,46.719788,-71.334062,,,,,
7817,7817,M.-Victorin / des Oies,,46.721246,-71.331865,,,,,
7821,7821,M.-Victorin / Trottier,,46.722902,-71.328912,,,,,
7885,7885,M.-Victorin / De Beaurivage,,46.725493,-71.319629,,,,,
7889,7889,M.-Victorin / de l'Étoile,,46.726243,-71.316826,,,,,
7293,7293,Forestier / des Harfangs,,46.732257,-71.303695,,,,,
7701,7701,Forestier / des Cormorans,,46.734346,-71.306786,,,,,
7709,7709,de la Corniche / des Mésanges,,46.736624,-71.304718,,,,,
7713,7713,de la Corniche / des H.-Herbes,,46.737426,-71.302744,,,,,
7717,7717,de la Corniche / du Château,,46.738701,-71.299722,,,,,
7721,7721,du Château / des Geais,,46.735793,-71.300412,,,,,
7725,7725,du Château / du G.-Bassin,,46.734922,-71.299045,,,,,
7961,7961,Cayer / Drapeau,,46.733461,-71.296888,,,,,
7965,7965,Station Cayer,,46.732269,-71.295036,,,,,
8441,8441,des Frênes / des Cèdres,,46.706736,-71.292932,,,,,
220565,22-565,Plante / d'Évreux,,46.711834,-71.307212,,,,,
220555,22-555,Plante / de Picardie,,46.710495,-71.309309,,,,,
220545,22-545,V.-Crêpes / de Picardie,,46.708920,-71.307963,,,,,
220535,22-535,V.-Crêpes / de la Sorbonne,,46.707812,-71.311997,,,,,
220525,22-525,de Limoges / de Lausanne,,46.706619,-71.313562,,,,,
220515,22-515,de Limoges / de Fribourg,,46.705141,-71.311910,,,,,
220505,22-505,de Limoges / de la Seine,,46.703078,-71.310355,,,,,
220495,22-495,de la Seine / de la Sorbonne,,46.704436,-71.307642,,,,,
220485,22-485,de la Seine / de Bray,,46.705472,-71.305432,,,,,
220475,22-475,de la Seine / de Vimy,,46.706681,-71.302897,,,,,
220405,22-405,de la Seine / Olivier,,46.708405,-71.298256,,,,,
220395,22-395,Olivier - arrêt 22-0395,,46.705802,-71.298603,,,,,
220385,22-385,Olivier / William-G.-Ross,,46.698649,-71.301188,,,,,
220375,22-375,Olivier / J.-A.-Craig,,46.697247,-71.302963,,,,,
220365,22-365,Olivier - arrêt 22-0365,,46.695710,-71.306044,,,,,
220355,22-355,Olivier / A.-Desrochers,,46.694260,-71.308951,,,,,
220345,22-345,Parc industriel de Bernières-Nord,,46.693101,-71.311354,,,,,
220335,22-335,Olivier - arrêt 22-0335,,46.691764,-71.314071,,,,,
220325,22-325,Olivier / F.-Pelletier,,46.690242,-71.317054,,,,,
220315,22-315,Olivier - arrêt 22-0315,,46.689301,-71.319013,,,,,
220305,22-305,Olivier - arrêt 22-0305,,46.687461,-71.322763,,,,,
220295,22-295,Olivier - arrêt 22-0295,,46.685743,-71.326161,,,,,
220285,22-285,Olivier - arrêt 22-0285,,46.684062,-71.329556,,,,,
220275,22-275,Olivier - arrêt 22-0275,,46.681916,-71.333982,,,,,
220265,22-265,Olivier - arrêt 22-0265,,46.680460,-71.337876,,,,,
220245,22-245,Filteau / des Carrières,,46.678386,-71.349933,,,,,
220235,22-235,de Nantes / Chouinard,,46.676987,-71.350420,,,,,
220145,22-145,Filteau / J.-R.-Tardif,,46.670940,-71.364923,,,,,
220135,22-135,J.-R.-Tardif / Vallières,,46.672311,-71.366690,,,,,
220125,22-125,J.-R.-Tardif / Joce,,46.674153,-71.369037,,,,,
220115,22-115,Joce / Valroc,,46.673362,-71.370401,,,,,
220105,22-105,Joce / Jamin,,46.671731,-71.373424,,,,,
220095,22-095,Jamin / Vallières,,46.670600,-71.372098,,,,,
220085,22-085,Vallières / Valroc,,46.671561,-71.368248,,,,,
220065,22-065,Filteau / de l'Érablière,,46.668975,-71.370391,,,,,
220055,22-055,Filteau - arrêt 22-0055,,46.667249,-71.375254,,,,,
220045,22-045,Filteau - arrêt 22-0045,,46.665383,-71.380587,,,,,
220035,22-035,des Charmilles / Filteau,,46.664928,-71.382882,,,,,
220025,22-025,des Charmilles / Hamel,,46.666441,-71.384069,,,,,
220015,22-015,des Charmilles / de la Lisière,,46.667781,-71.385985,,,,,
220005,22-005,de la Lisière / des Charmilles,,46.667567,-71.388360,,,,,
7966,7966,Station Cayer,,46.732532,-71.295237,,,,,
190010,19-010,Vieux Chemin / du Flottage,,46.649999,-71.243988,,,,,
190020,19-020,Vieux Chemin / Robitaille,,46.651180,-71.245728,,,,,
190030,19-030,Robitaille - arrêt 19-0030,,46.651827,-71.248093,,,,,
190040,19-040,Robitaille / des Estacades,,46.653554,-71.250271,,,,,
190050,19-050,Robitaille / Vieux Chemin,,46.656554,-71.249135,,,,,
190060,19-060,Parc des Chérubins,,46.653769,-71.247677,,,,,
190070,19-070,du Flottage / Gagné,,46.652761,-71.243885,,,,,
190080,19-080,du Flottage / Vieux Chemin,,46.650290,-71.243908,,,,,
190100,19-100,St-Augustin / G.-Boutin,,46.659341,-71.239045,,,,,
190110,19-110,St-Augustin - arrêt 19-0110,,46.663145,-71.235910,,,,,
190120,19-120,St-Augustin / Bussières,,46.665621,-71.232887,,,,,
190240,19-240,des Arbrisseaux / des Conifères,,46.681234,-71.216295,,,,,
190250,19-250,des G.-Bois / des Arbrisseaux,,46.682739,-71.217266,,,,,
190290,19-290,des Samares / des C.-Verts,,46.686538,-71.217010,,,,,
190310,19-310,de l'A.-des-Bois / des Arbrisseaux,,46.684047,-71.219559,,,,,
190330,19-330,des Arbrisseaux / du Labrador,,46.683946,-71.223508,,,,,
190340,19-340,des Arbrisseaux / L.-Lapierre,,46.683707,-71.225361,,,,,
190370,19-370,St-Augustin - arrêt 19-0370,,46.688811,-71.234664,,,,,
190380,19-380,St-Augustin / D.-Hallé,,46.689913,-71.236845,,,,,
190440,19-440,Beaulieu / des Draveurs Nord,,46.695515,-71.245535,,,,,
190460,19-460,Beaulieu / de Charny,,46.698749,-71.254858,,,,,
190550,19-550,de Charny / des Générations,,46.711423,-71.269164,,,,,
190355,19-355,Beaulieu / de Charny,,46.698524,-71.254857,,,,,
190335,19-335,Beaulieu / des Draveurs Nord,,46.695608,-71.245940,,,,,
190315,19-315,St-Augustin / D.-Hallé,,46.689753,-71.236913,,,,,
190305,19-305,St-Augustin - arrêt 19-0305,,46.688721,-71.234801,,,,,
190295,19-295,St-Augustin / des Arbrisseaux,,46.681846,-71.230053,,,,,
190320,19-320,des Arbrisseaux / Brassard,,46.684149,-71.221933,,,,,
190115,19-115,Champfleury / de la Verveine,,46.680815,-71.227240,,,,,
190105,19-105,Champfleury / St-Augustin,,46.679944,-71.229474,,,,,
190095,19-095,St-Augustin / René-Lavertu,,46.678321,-71.229207,,,,,
190075,19-075,St-Augustin / D.-Anderson,,46.673516,-71.227783,,,,,
190065,19-065,St-Augustin / M.-Bégin,,46.671462,-71.229021,,,,,
190045,19-045,St-Augustin / Bussières,,46.665997,-71.232617,,,,,
190035,19-035,St-Augustin - arrêt 19-0035,,46.662907,-71.236530,,,,,
190025,19-025,St-Augustin / G.-Boutin,,46.659793,-71.239092,,,,,
190015,19-015,St-Augustin / Vieux Chemin,,46.649509,-71.241663,,,,,
190450,19-450,Beaulieu - arrêt 19-0450,,46.697458,-71.249613,,,,,
6198,6198,Beaulieu - arrêt 6198,,46.697533,-71.250516,,,,,
190430,19-430,Beaulieu / des Draveurs Sud,,46.694280,-71.243750,,,,,
190325,19-325,Beaulieu / des Draveurs Sud,,46.693814,-71.243399,,,,,
990111,,Institut de cardiologie et de pneumologie,,46.777722,-71.294559,,,,,
220155,22-155,Filteau / de Turin,,46.672546,-71.361248,,,,,
220170,22-170,de Turin / de Calgary,,46.673869,-71.361637,,,,,
220172,22-172,de Oslo / de Sapporo,,46.675398,-71.361771,,,,,
220165,22-165,de Turin / de Calgary,,46.674183,-71.362071,,,,,
220173,22-173,de Oslo / de Sapporo,,46.675506,-71.361602,,,,,
220180,22-180,de Nantes / de Lyon,,46.674424,-71.357333,,,,,
7385,7385,des Mélèzes - arrêt 7385,,46.711273,-71.342344,,,,,
7384,7384,des Mélèzes - arrêt 7384,,46.711390,-71.342165,,,,,
7298,7298,Forestier / des Moucherolles,,46.733608,-71.305940,,,,,
7297,7297,Forestier / des Moucherolles,,46.733548,-71.305596,,,,,
7392,7392,Méthot / de Chartres,,46.713815,-71.340122,,,,,
7393,7393,Méthot / de Chartres,,46.713795,-71.339624,,,,,
190375,19-375,de Charny / de la Rotonde,,46.708595,-71.265315,,,,,
190385,19-385,de Charny / des Générations,,46.711598,-71.269645,,,,,
990094,99-094,Terminus Lagueux,,46.672028,-71.341611,,,,,
990123,99-123,PRB des Rivières,,46.727449,-71.296144,,,,,
240345,24-345,PRB des Rivières,,46.727495,-71.296122,,,,,
650670,65-670,PRB des Rivières,,46.727545,-71.296108,,,,,
4334,4334,Vanier / Dumas,,46.735190,-71.206754,,,,,
160065,16-065,du Basilic / Taniata,,46.724881,-71.203008,,,,,
160055,16-055,de la Lavande / de la Marjolaine,,46.725368,-71.206507,,,,,
160045,16-045,de la Lavande / de la Menthe,,46.724178,-71.210336,,,,,
160043,16-043,de la Prairie / de la Menthe,,46.727647,-71.211777,,,,,
9902,9902,Garage ADCA,,46.686199,-71.325075,,,,,
5957,5957,E.-Lacasse / de la Concorde,,46.732099,-71.262304,,,,,
970237,97-237,du Colibri / de l'Étourneau,,46.720881,-71.253101,,,,,
970238,97-238,des G.-Becs / des Éperviers,,46.721515,-71.250636,,,,,
970239,97-239,des Éperviers /  des Générations,,46.721950,-71.253015,,,,,
970001,97-001,P.-Beaumont / A.-G.-Lajoie,,46.715014,-71.205775,,,,,
4925,4925,P.-Beaumont / Taniata,,46.718712,-71.197109,,,,,
4830,4830,Taniata / de la R.-Etchemin,,46.724134,-71.201553,,,,,
7257,7257,Plante / des Rivières,,46.716698,-71.298574,,,,,
160090,16-090,de la Menthe / de la Prairie,,46.727320,-71.211680,,,,,
990148,99-148,Arguin / des Rivières,,46.658935,-71.289541,,,,,
990149,99-149,de la Seine / Olivier,,46.708730,-71.298104,,,,,
990150,99-150,de la Seine / Olivier,,46.708563,-71.297963,,,,,
990323,99-323,G.-Couture / des Calfats,,46.822439,-71.126152,,,,,
110213,11-213,Lallemand / G.-Couture,,46.822540,-71.114976,,,,,2
7848,7848,M.-Victorin / de l'Étoile,,46.726419,-71.316678,,,,,
2523,2523,Pintendre / Brouard,,46.756111,-71.128340,,,,,
3513,3513,St-Omer / des Commandeurs,,46.807705,-71.164440,,,,,
3514,3514,St-Omer / des Commandeurs,,46.807884,-71.164737,,,,,
3517,3517,St-Omer / du Serrurier,,46.808862,-71.164808,,,,,
3518,3518,St-Omer / du Serrurier,,46.809049,-71.165356,,,,,
3521,3521,Parc du Menuisier,,46.810162,-71.166707,,,,,
3522,3522,Parc du Batelier,,46.810133,-71.166972,,,,,
3525,3525,St-Omer / Champagnat,,46.811573,-71.168809,,,,,
3526,3526,St-Omer / Champagnat,,46.811169,-71.168506,,,,,
3501,3501,du P.-Kennedy / de Sarosto,,46.786585,-71.163732,,,,,
3502,3502,du P.-Kennedy / de Sarosto,,46.786603,-71.164126,,,,,
3534,3534,St-Omer / St-Georges,,46.813969,-71.173910,,,,,
140020,14-020,A.-Desjardins / W.-Carrier,,46.789100,-71.157202,,,,,
3541,3541,Terminus de la Traverse,,46.810685,-71.186993,,,,,
3530,3530,St-Omer / D'Artimon,,46.811846,-71.171677,,,,,
3533,3533,St-Omer / St-Georges,,46.813859,-71.173465,,,,,
3510,3510,St-Omer / G.-Couture,,46.806917,-71.164633,,,,,
3529,3529,St-Omer / D'Artimon,,46.811982,-71.171468,,,,,
3369,3369,Flaubert / É.-Dallaire,,46.788609,-71.170096,,,,,
3309,3309,des Rubis / des Diamants,,46.776920,-71.190834,,,,,
3313,3313,des Rubis / T.-Chapais,,46.778323,-71.188742,,,,,
130312,13-312,H.-Fabre / R.-Lasnier,,46.777581,-71.181549,,,,,
130412,13-412,Bossuet / Lamartine,,46.788912,-71.179672,,,,,
3370,3370,Flaubert / É.-Dallaire,,46.788347,-71.170122,,,,,
130403,13-403,Bossuet / C.-Rodrigue,,46.787218,-71.183089,,,,,
3326,3326,T.-Chapais / H.-Fabre,,46.776354,-71.180062,,,,,
3310,3310,des Rubis / de la Galène,,46.777199,-71.190704,,,,,
3306,3306,des Rubis / des Zircons,,46.775751,-71.192805,,,,,
970002,97-002,Massenet / Fauré,,46.792862,-71.158981,,,,,
970003,97-003,Massenet / Fauré,,46.794267,-71.156349,,,,,
970004,97-004,Massenet / Ravel,,46.795332,-71.153559,,,,,
970005,97-005,Massenet / Berlioz,,46.796915,-71.152887,,,,,
970006,97-006,Berlioz / Ravel,,46.795828,-71.155582,,,,,
970007,97-007,Massenet / Fauré,,46.793062,-71.158822,,,,,
3373,3373,É.-Dallaire / Bizet,,46.794348,-71.163141,,,,,
220255,22-255,de la Chaux / Olivier,,46.680467,-71.343998,,,,,
220270,22-270,de la Chaux / Olivier,,46.680308,-71.344263,,,,,
970040,97-040,de Coutances / A.-Lachance,,46.765795,-71.138856,,,,,
970041,97-041,de Coutances / A.-Lachance,,46.765870,-71.139023,,,,,
970042,97-042,de Coutances / R.-A.-Beaudoin,,46.768932,-71.142872,,,,,
970043,97-043,de Coutances / R.-A.-Beaudoin,,46.768894,-71.142936,,,,,
4705,4705,Taniata - arrêt 4705,,46.736134,-71.212272,,,,,
5953,5953,E.-Lacasse / G.-Couture,,46.733839,-71.263006,,,,,
110003,11-003,Terminus de la Traverse,,46.810687,-71.187303,,,,,1
110002,11-002,Terminus de la Traverse,,46.810698,-71.187505,,,,,1
220223,22-223,de Nantes / de l'Oasis,,46.674733,-71.356804,,,,,
220236,22-236,de Nantes / de Strasbourg,,46.675538,-71.354609,,,,,
220603,22-603,Plante / Gosselin,,46.713541,-71.304734,,,,,
220582,22-582,Plante / V.-Crêpes,,46.714692,-71.301735,,,,,
220488,22-488,de la Seine / de Vimy,,46.706882,-71.302768,,,,,
220407,22-407,de la Seine / du Mans,,46.707844,-71.300179,,,,,
7376,7376,des Mélèzes / du Rocher,,46.713586,-71.346163,,,,,
7377,7377,du Rocher / des Mélèzes,,46.713530,-71.346449,,,,,
7372,7372,du Rocher / des Érables,,46.712873,-71.348146,,,,,
7873,7873,M.-Victorin / des Érables,,46.714715,-71.351180,,,,,
190188,19-188,St-Augustin / Champfleury,,46.679970,-71.229861,,,,,
190117,19-117,L.-Lapierre / Champfleury,,46.681692,-71.225007,,,,,
190252,19-252,des G.-Bois / de la Camarine,,46.684603,-71.215194,,,,,
190254,19-254,de la Viorne / de la Toundra,,46.687146,-71.215716,,,,,
190292,19-292,des Samares / des Mûriers,,46.684245,-71.217623,,,,,
190382,19-382,St-Augustin / Bon Air,,46.692342,-71.240984,,,,,
190323,19-323,St-Augustin / Bon Air,,46.692143,-71.240981,,,,,
190103,19-103,St-Augustin / des Arbrisseaux,,46.681694,-71.229782,,,,,
8076,8076,Station de St-Denis,,46.691099,-71.279794,,,,,
8075,8075,Station de St-Denis,,46.690800,-71.280502,,,,,
8078,8078,de St-Denis / des Muguets,,46.689431,-71.282696,,,,,
8077,8077,de St-Denis / des Pivoines,,46.689677,-71.282629,,,,,
8079,8079,de St-Denis / P.-Roy,,46.689144,-71.284954,,,,,
8417,8417,du G.-Tronc / G.-Bibeau,,46.697605,-71.289766,,,,,
8418,8418,du G.-Tronc / G.-Bibeau,,46.697731,-71.289804,,,,,
8422,8422,du G.-Tronc / A.-Baron,,46.699346,-71.287491,,,,,
8421,8421,du G.-Tronc / A.-Baron,,46.699156,-71.287592,,,,,
8434,8434,des Frênes / W.-Fortier,,46.703661,-71.288823,,,,,
650245,65-245,des Explorateurs / des Découvreurs,,46.591594,-71.201224,,,,,
650241,65-241,des Explorateurs /de Montcalm,,46.593730,-71.198512,,,,,
650239,65-239,du Pont / Jogue,,46.594176,-71.201838,,,,,
650237,65-237,du Pont / Le Moyne,,46.592354,-71.204482,,,,,
650252,65-252,du Pont / Le Moyne,,46.592080,-71.204647,,,,,
650254,65-254,du Pont / Jogue,,46.593949,-71.201869,,,,,
650256,65-256,des Explorateurs /de Montcalm,,46.593781,-71.198651,,,,,
650260,65-260,des Explorateurs / des Découvreurs,,46.591801,-71.201211,,,,,
650262,65-262,Cartier / Radisson,,46.590330,-71.203929,,,,,
220162,22-162,Filteau / de Turin,,46.672438,-71.360719,,,,,
220068,22-068,Filteau / Valroc,,46.670208,-71.367101,,,,,
190470,19-470,Beaulieu / Chenaux E.,,46.699589,-71.258630,,,,,
190482,19-482,Beaulieu / des Chenaux O.,,46.698237,-71.265087,,,,,
190361,19-361,Beaulieu / des Chenaux O.,,46.697819,-71.265468,,,,,
190357,19-357,Beaulieu / Chenaux E.,,46.699325,-71.258754,,,,,
190486,19-486,de la Jonction / de la Rotonde,,46.704381,-71.274323,,,,,
190367,19-367,de la Rotonde / de la Jonction,,46.704573,-71.274534,,,,,
190492,19-492,de la Rotonde / de Charny,,46.708261,-71.265138,,,,,
7929,7929,Station PRB des Rivières,,46.728477,-71.296238,,,,,
7925,7925,S.-M.-Chartrand / A.-Parizeau,,46.728623,-71.298941,,,,,
7921,7921,M.-C.-Daveluy / S.-M.-Chartrand,,46.728042,-71.300734,,,,,
7917,7917,M.-C.-Daveluy / G.-De Montreuil,,46.726384,-71.301478,,,,,
7266,7266,L.-Conan / M.-C.-Daveluy,,46.724752,-71.302208,,,,,
7270,7270,L.-Conan / M.-Corriveau,,46.726607,-71.304897,,,,,
7926,7926,S.-M.-Chartrand / A.-Parizeau,,46.728815,-71.298280,,,,,
7274,7274,S.--M.-Chartrand / L.-Conan,,46.727624,-71.306371,,,,,
7922,7922,S.--M.-Chartrand / M.-C.-Daveluy,,46.728216,-71.300568,,,,,
7915,7915,S.-M.-Chartrand / J.-Demers,,46.726593,-71.307969,,,,,
7918,7918,M.-C.-Daveluy / G.-De Montreuil,,46.726664,-71.301491,,,,,
7911,7911,J.-Demers / F.-Loranger,,46.722655,-71.303203,,,,,
7914,7914,M.-C.-Daveluy / L.-Conan,,46.724844,-71.301993,,,,,
7909,7909,J.-Demers / G.-Roy,,46.721887,-71.302081,,,,,
7269,7269,L.-Conan / M.-Corriveau,,46.726330,-71.304254,,,,,
7273,7273,L.-Conan / S.--M.-Chartrand,,46.727696,-71.306174,,,,,
7277,7277,S.-M.-Chartrand / J.-Demers,,46.726480,-71.308343,,,,,
7912,7912,J.-Demers / F.-Loranger,,46.722584,-71.303306,,,,,
8097,8097,de Bernières / du S.-Bois,,46.710498,-71.293152,,,,,
8098,8098,de Bernières / du S.-Bois,,46.710182,-71.293554,,,,,
8445,8445,des Frênes / de Bernières,,46.707703,-71.294269,,,,,
8442,8442,des Frênes / des Cèdres,,46.706819,-71.293362,,,,,
8433,8433,des Frênes / W.-Fortier,,46.703428,-71.288196,,,,,
8437,8437,des Frênes / du Domaine,,46.705265,-71.290791,,,,,
650243,65-243,des Explorateurs / Jogue,,46.592691,-71.200064,,,,,
650258,65-258,des Explorateurs / Jogue,,46.592919,-71.200000,,,,,
520305,52-305,Terminus de la Traverse,,46.810272,-71.187624,,,,,
990151,99-151,Collège de Lévis - du M.-Marie,,46.811233,-71.178981,,,,,
990152,99-152,Collège de Lévis - du M.-Marie,,46.811333,-71.178776,,,,,
990153,99-153,Collège de Lévis - du M.-Marie,,46.811414,-71.178603,,,,,
990154,99-154,Collège de Lévis - du M.-Marie,,46.811562,-71.178306,,,,,
3631,3631,A.-Desjardins / O.-J.-Morin,,46.800190,-71.172714,,,,,2
30142,03-142,Station Laprise,,46.654988,-71.294269,,,,,2
30143,03-143,Station Laprise,,46.655335,-71.293871,,,,,2
220147,22-147,Filteau / Valroc,,46.670025,-71.366991,,,,,
220182,22-182,Filteau / de l'Oasis,,46.673843,-71.356174,,,,,
220227,22-227,Filteau / de l'Oasis,,46.674035,-71.356097,,,,,
220238,22-238,Filteau / de Beauvais,,46.675154,-71.352316,,,,,
220233,22-233,Filteau / de Beauvais,,46.675431,-71.352171,,,,,
7877,7877,M.-Victorin / des Mélèzes,,46.715465,-71.348562,,,,,
7876,7876,M.-Victorin / des Scirpes,,46.715765,-71.348074,,,,,
4753,4753,de la Colombière / de Vinci,,46.714800,-71.201201,,,,,
4757,4757,de la Colombière / des Champs,,46.711547,-71.200028,,,,,
3677,3677,St-Omer / St-Louis-de-France,,46.817779,-71.179365,,,,,2
3177,3177,St-Omer / St-Louis-de-France,,46.818014,-71.179417,,,,,2
3389,3389,St-Omer / des Forts,,46.802259,-71.157070,,,,,
3390,3390,St-Omer / des Forts,,46.802886,-71.158586,,,,,
30163,03-163,Station Saindon,,46.662426,-71.284370,,,,,2
30162,03-162,Station Saindon,,46.662521,-71.283749,,,,,2
3830,3830,Saint-Laurent / arrêt 3830,,46.813944,-71.184953,,,,,
3829,3829,Saint-Laurent / arrêt 3829,,46.814186,-71.184984,,,,,
5421,5421,Beaumont / Trudelle,,46.750132,-71.223474,,,,,
5478,5478,St-Eustache / du Fleuve,,46.755583,-71.244700,,,,,
5477,5477,du Fleuve / St-Eustache,,46.755727,-71.244741,,,,,
5482,5482,St-Eustache - arrêt 5482,,46.753886,-71.242855,,,,,
5481,5481,St-Eustache - arrêt 5481,,46.753887,-71.243153,,,,,
5498,5498,du Sault / Desneiges,,46.750320,-71.248597,,,,,
4929,4929,de la Prairie / Taniata,,46.729891,-71.207250,,,,,
110367,11-367,Caron / du Tadoussac,,46.823460,-71.150852,,,,,1
120047,12-047,Caron / des Laquiers,,46.819159,-71.146335,,,,,
120049,12-049,Caron / P.-Romain,,46.820321,-71.147050,,,,,
120055,12-055,Caron / des Traversiers,,46.821256,-71.148030,,,,,
120065,12-065,des Gaspésiennes / du Tadoussac,,46.822734,-71.147294,,,,,
120075,12-075,des Gaspésiennes / des B.-Glaces,,46.822458,-71.144331,,,,,
120085,12-085,Langelier / des Gaspésiennes,,46.820971,-71.141963,,,,,
120095,12-095,Langelier / des Chalands,,46.819019,-71.141943,,,,,
120105,12-105,des Capucines / des Jacinthes,,46.817897,-71.138776,,,,,
120115,12-115,des Mimosas / des Jacinthes,,46.815821,-71.138512,,,,,
1210,1210,des Lilas / des Mimosas,,46.814748,-71.140918,,,,,
120371,12-371,Collège de Lévis - Mgr-Gosselin,,46.811096,-71.179966,,,,,
3329,3329,Thomas-Chapais / Robert-Rumilly,,46.777121,-71.176869,,,,,
3330,3330,Thomas-Chapais / Robert-Rumilly,,46.777182,-71.177174,,,,,
3333,3333,Thomas-Chapais / Ernest-Chouinard,,46.778444,-71.173724,,,,,
3334,3334,Thomas-Chapais / Ernest-Chouinard,,46.778648,-71.173866,,,,,
3337,3337,Thomas-Chapais / Charles-Rodrigue,,46.779630,-71.172803,,,,,
3346,3346,Lamartine / Charles-Rodrigue,,46.779912,-71.172725,,,,,
3349,3349,Lamartine / de Ségur,,46.781720,-71.171296,,,,,
3350,3350,Lamartine / de Ségur,,46.782025,-71.171208,,,,,
130490,13-490,Bossuet / Victor-Hugo,,46.789692,-71.176980,,,,,
130495,13-495,Bossuet / Victor-Hugo,,46.790027,-71.176866,,,,,
130500,13-500,Bossuet / Châteaubriand,,46.791543,-71.174810,,,,,
130505,13-505,Bossuet / Châteaubriand,,46.791806,-71.174782,,,,,
7262,7262,École de l'Envol,,46.723659,-71.300120,,,,,
7829,7829,de l'Estran - arrêt 7829,,46.726404,-71.327098,,,,,
7828,7828,de l'Estran - arrêt 7828,,46.726392,-71.327287,,,,,
7833,7833,de l'Estran / du Pèlerin,,46.728024,-71.326847,,,,,
7832,7832,de l'Estran / du Pèlerin,,46.728249,-71.326809,,,,,
7837,7837,de l'Estran / de l'Étoile,,46.729680,-71.322275,,,,,
7836,7836,de l'Estran / de l'Étoile,,46.729856,-71.322115,,,,,
7841,7841,de l'Estran / du Hunier,,46.730283,-71.319326,,,,,
7902,7902,de l'Estran / de la Corniche,,46.730421,-71.319165,,,,,
7905,7905,de l'Estran / de la Misaine,,46.730160,-71.314388,,,,,
7906,7906,de l'Estran / de la Misaine,,46.730003,-71.313863,,,,,
7285,7285,du Butor / des Viréos,,46.730333,-71.309527,,,,,
7286,7286,des Viréos / du Butor,,46.730291,-71.309873,,,,,
7289,7289,des Viréos / des Chevaliers,,46.731246,-71.307008,,,,,
7290,7290,des Chevaliers / des Viréos,,46.731273,-71.307661,,,,,
970010,97-010,Massenet / Bizet,,46.792370,-71.160296,,,,,
970011,97-011,Berlioz / É.-Dallaire,,46.796368,-71.157694,,,,,
3374,3374,É.-Dallaire / Bizet,,46.794692,-71.162650,,,,,
3381,3381,É.-Dallaire / Berlioz,,46.796653,-71.157155,,,,,
970015,97-015,Berlioz / Ravel,,46.795495,-71.155853,,,,,
970016,97-016,Massenet / Berlioz,,46.796591,-71.152739,,,,,
970017,97-017,Massenet / Ravel,,46.795518,-71.153452,,,,,
970019,97-019,Massenet / Fauré,,46.794628,-71.156055,,,,,
990141,99-141,École M.-Mallet - Déziel,,46.809929,-71.184664,,,,,
7282,7282,des Aigrettes / de l'Estran,,46.729324,-71.312474,,,,,
7281,7281,des Aigrettes / de l'Estran,,46.729280,-71.312082,,,,,
3301,3301,Station des Rubis,,46.774888,-71.195392,,,,,
7265,7265,L.-Conan / M.-C.-Daveluy,,46.724651,-71.301861,,,,,
7705,7705,Forestier / de la Corniche,,46.735127,-71.307887,,,,,
170245,17-245,du Fleuve - arrêt 17-0245,,46.750301,-71.252677,,,,,
1068,1068,des Riveurs / des Cordiers,,46.817517,-71.114965,,,,,2
1067,1067,des Riveurs / des Cordiers,,46.817274,-71.114235,,,,,2
7358,7358,des Genévriers / M.-Victorin,,46.713031,-71.356352,,,,,
230800,23-800,de l'Affluent / du Méandre,,46.723798,-71.295701,,,,,
230810,23-810,de l'Affluent / du Replat,,46.725815,-71.293829,,,,,
230820,23-820,du Replat / de l'Aquifère,,46.722198,-71.293471,,,,,
1075,1075,J.-Marchand / des Riveurs,,46.816626,-71.128274,,,,,2
1076,1076,J.-Marchand / des Riveurs,,46.816557,-71.128635,,,,,2
1072,1072,Parc industriel de Lauzon,,46.818619,-71.122994,,,,,2
1071,1071,Parc industriel de Lauzon,,46.818543,-71.123384,,,,,2
1079,1079,J.-Marchand / G.-Couture,,46.820148,-71.130765,,,,,2
8002,8002,Parc industriel de Bernières-Sud,,46.673339,-71.337524,,,,,2
8006,8006,J.-A.-Bombardier / Industriel,,46.675448,-71.341924,,,,,2
4872,4872,Taniata / des Champs,,46.713812,-71.193310,,,,,
7881,7881,M.-Victorin / de l'Estran,,46.724532,-71.324283,,,,,
4933,4933,de la Prairie / de la Citronnelle,,46.727093,-71.213500,,,,,
4934,4934,de la Prairie / de la Citronnelle,,46.726806,-71.213665,,,,,
4930,4930,de la Prairie / du Fenouil,,46.728943,-71.208944,,,,,
4854,4854,de la Colombière / de Vinci,,46.714714,-71.200953,,,,,
4850,4850,de la Colombière / P.-Beaumont,,46.716411,-71.202568,,,,,
4941,4941,de la Prairie / du Centaure,,46.723660,-71.221163,,,,,
8410,8410,des Hiboux / du Bourgeois,,46.695365,-71.293700,,,,,
8414,8414,du Grand-Tronc / Bilodeau,,46.696684,-71.291452,,,,,
8413,8413,du Grand-Tronc / P.-Roy,,46.696269,-71.291894,,,,,
7825,7825,de l'Estran / M.-Victorin,,46.725073,-71.325683,,,,,
7824,7824,de l'Estran / M.-Victorin,,46.724903,-71.325796,,,,,
6903,6903,des B.-Amours / des P.-Neige,,46.721490,-71.259977,,,,,
6904,6904,des B.-Amours / des P.-Neige,,46.721307,-71.259973,,,,,
6912,6912,du M.-Joffre / des B.-Amours,,46.719423,-71.264460,,,,,
6911,6911,des B.-Amours / du M.-Joffre,,46.719510,-71.264300,,,,,
6908,6908,des B.-Amours / du Liseron,,46.720394,-71.261997,,,,,
6907,6907,des B.-Amours / du Liseron,,46.720365,-71.262425,,,,,
1213,1213,des Lilas / des Forts,,46.813347,-71.140421,,,,,
1214,1214,des Lilas / des Forts,,46.813514,-71.140220,,,,,
1217,1217,des Lilas / de l'Orge,,46.811390,-71.137983,,,,,
1218,1218,de l'Orge / des Lilas,,46.811258,-71.137867,,,,,
1221,1221,du Blé - arrêt 1221,,46.811540,-71.140727,,,,,
1222,1222,du Blé - arrêt 1222,,46.811493,-71.140909,,,,,
1225,1225,du Millet / de l'Avoine,,46.812157,-71.142937,,,,,
1226,1226,de l'Avoine / du Millet,,46.812068,-71.143138,,,,,
1233,1233,des Forts / Mgr-Bourget,,46.812955,-71.147457,,,,,
1234,1234,des Forts / Mgr-Bourget,,46.812861,-71.147194,,,,,
3056,3056,É.-Dallaire /A.-Desjardins,,46.793284,-71.164956,,,,,2
3057,3057,É.-Dallaire /A.-Desjardins,,46.793424,-71.165190,,,,,1
6902,6902,des B.-Amours / des Tourtes,,46.722766,-71.256868,,,,,
120140,12-140,des Lilas / des Camélias,,46.815858,-71.142429,,,,,
120135,12-135,des Lilas / des Camélias,,46.815874,-71.142767,,,,,
120125,12-125,des Lilas / des Mimosas,,46.814825,-71.141320,,,,,
7278,7278,J.-Demers / S.-M.-Chartrand,,46.726270,-71.308725,,,,,
6901,6901,des Tourtes / des B.-Amours,,46.722932,-71.256997,,,,,
1901,1901,Caron / C.-Poiré,,46.817555,-71.145091,,,,,
220225,22-225,de Nantes / de Strasbourg,,46.675730,-71.354550,,,,,
190190,19-190,Champfleury / de la Verveine,,46.680762,-71.227046,,,,,
190245,19-245,de l'A.-des-Bois / des Arbrisseaux,,46.683888,-71.219703,,,,,
190265,19-265,des Arbrisseaux / du Labrador,,46.683786,-71.223641,,,,,
190215,19-215,de la Viorne / de la Toundra,,46.686998,-71.215967,,,,,
190185,19-185,des G.-Bois / des Arbrisseaux,,46.682700,-71.217621,,,,,
190175,19-175,des Arbrisseaux / des Conifères,,46.681326,-71.216552,,,,,
190255,19-255,des Arbrisseaux / Brassard,,46.683968,-71.222211,,,,,
190187,19-187,des G.-Bois / de la Camarine,,46.684705,-71.215383,,,,,
190217,19-217,des Samares / des C.-Verts,,46.686340,-71.216808,,,,,
190219,19-219,des Mûriers / des Samares,,46.684129,-71.217874,,,,,
190267,19-267,L.-Lapierre / des Arbrisseaux,,46.683565,-71.225292,,,,,
190192,19-192,Champfleury / L.-Lapierre,,46.681559,-71.225022,,,,,
6101,6101,des T.-Manoirs / de l'Oiselet,,46.667799,-71.228767,,,,,
6102,6102,des T.-Manoirs / de l'Oiselet,,46.667903,-71.228707,,,,,
6103,6103,des T.-Manoirs / de la Coupe,,46.668337,-71.224258,,,,,
6104,6104,des T.-Manoirs / de la Coupe,,46.668736,-71.224185,,,,,
6106,6106,des T.-Manoirs / du Surintendant,,46.670857,-71.224334,,,,,
6105,6105,des T.-Manoirs / du Surintendant,,46.670594,-71.224309,,,,,
6107,6107,des T.-Manoirs / des Bois,,46.672141,-71.221762,,,,,
6108,6108,des T.-Manoirs / des Bois,,46.672230,-71.221962,,,,,
6109,6109,des T.-Manoirs / des Seigneurs,,46.672856,-71.220099,,,,,
6110,6110,des T.-Manoirs / des Seigneurs,,46.672967,-71.220156,,,,,
6111,6111,des T.-Manoirs - arrêt 6111,,46.674584,-71.218789,,,,,
6112,6112,des T.-Manoirs - arrêt 6112,,46.675149,-71.218400,,,,,
6113,6113,Brassard / des Seigneurs,,46.676180,-71.217898,,,,,
6114,6114,Brassard / des Seigneurs,,46.676404,-71.218424,,,,,
6115,6115,Parc Ian Breakey,,46.677811,-71.219640,,,,,
6116,6116,Parc Ian Breakey,,46.677766,-71.219776,,,,,
130277,13-277,Charles-Rodrigue / Thomas-Chapais,,46.779799,-71.172964,,,,,
5445,5445,de St-Romuald / E.-Beaulieu,,46.754175,-71.233828,,,,,
5446,5446,de St-Romuald / E.-Beaulieu,,46.754011,-71.233852,,,,,
5442,5442,Bellevue / de Saint-Romuald,,46.752618,-71.231162,,,,,
5441,5441,Bellevue / de Saint-Romuald,,46.752596,-71.231449,,,,,
5436,5436,Bellevue / Leduc,,46.755010,-71.227208,,,,,
5449,5449,de St-Romuald / du Sault,,46.755661,-71.235961,,,,,
5450,5450,de St-Romuald / du Sault,,46.755767,-71.236391,,,,,
5457,5457,de St-Romuald / du Fleuve,,46.758244,-71.239623,,,,,
5453,5453,de St-Romuald / St-Jean-Baptiste,,46.757288,-71.238242,,,,,
5454,5454,de St-Romuald / St-Jean-Baptiste,,46.757412,-71.238662,,,,,
6915,6915,École Les Etchemins,,46.720649,-71.266107,,,,,
6916,6916,École Les Etchemins,,46.720400,-71.265822,,,,,
6919,6919,École Les Etchemins,,46.719318,-71.268436,,,,,
2501,2501,de l'Hôtel-des-Plaines / Robertson,,46.749987,-71.117805,,,,,
2503,2503,P.-Turgeon / Robertson,,46.747982,-71.116125,,,,,
190480,19-480,Beaulieu - arrêt 19-0480,,46.699055,-71.262656,,,,,
190359,19-359,Beaulieu - arrêt 19-0359,,46.698954,-71.262273,,,,,
110284,11-284,Lallemand - arrêt 11-0284,,46.816075,-71.105239,,,,,2
3659,3659,D.-Desjardins / St-Louis,,46.805357,-71.183603,,,,,1
3817,3817,du Passage / St-Louis,,46.805860,-71.182552,,,,,
3810,3810,D.-Desjardins / St-Georges,,46.803743,-71.181192,,,,,
3814,3814,D.-Desjardins / de l'Arsenal,,46.804426,-71.182168,,,,,
3813,3813,du Passage / H.-Smith,,46.805188,-71.181492,,,,,
3821,3821,du Passage / Wolfe,,46.807123,-71.184781,,,,,
3603,3603,D.-Desjardins / Wolfe,,46.806619,-71.185361,,,,,
3806,3806,D.-Desjardins / A.-Desjardins,,46.803037,-71.178502,,,,,
3802,3802,Société de transport de Lévis,,46.804067,-71.160242,,,,,
3382,3382,É.-Dallaire / Berlioz,,46.796890,-71.157455,,,,,
3378,3378,É.-Dallaire / Weyman,,46.796355,-71.160206,,,,,
3377,3377,É.-Dallaire / Weyman,,46.796364,-71.159723,,,,,
3385,3385,É.-Dallaire / St-Omer,,46.798485,-71.153123,,,,,
3386,3386,St-Omer / É.-Dallaire,,46.799658,-71.153753,,,,,
6117,6117,Brassard / Ste-Hélène,,46.678553,-71.220358,,,,,
190085,19-085,St-Augustin / Ste-Hélène,,46.675350,-71.228027,,,,,
2511,2511,Pintendre / J.-M.-Demers,,46.750888,-71.120949,,,,,
3066,3066,Clinique médicale L.-métro - É.-Dallaire,,46.791238,-71.167385,,,,,2
3067,3067,Clinique médicale L.-métro - É.-Dallaire,,46.792005,-71.166894,,,,,2
4942,4942,de la Prairie / du Centaure,,46.723625,-71.220851,,,,,
3934,3934,Centre de formation aux mesures d'urgence,,46.752047,-71.183330,,,,,
3933,3933,Centre de formation aux mesures d'urgence,,46.752128,-71.183074,,,,,
3929,3929,Centre de formation en mécanique de véhicules lourds,,46.747758,-71.188564,,,,,
1241,1241,E.-J.-Massicotte / L.-Ruelland,,46.812297,-71.153464,,,,,
1245,1245,L.-Ruelland / O.-Leduc,,46.810661,-71.155303,,,,,
1253,1253,A.-Dumouchel / P.-É.-Borduas,,46.807441,-71.157824,,,,,
1257,1257,P.-É.-Borduas / A.-Pellan,,46.808502,-71.159783,,,,,
1905,1905,du M.-Ruel / Caron,,46.824569,-71.152971,,,,,
1906,1906,Caron / du M.-Ruel,,46.824533,-71.152430,,,,,
3959,3959,H.-Fabre / R.-Lasnier,,46.777502,-71.181188,,,,,
3960,3960,H.-Fabre / T.-Chapais,,46.776362,-71.180319,,,,,
3993,3993,du P.-Kennedy / arrêt 3993,,46.788883,-71.167032,,,,,
3994,3994,du P.-Kennedy / arrêt 3994,,46.788930,-71.167469,,,,,
7291,7291,des Harfangs / des Sizerins,,46.731676,-71.304354,,,,,
7292,7292,des Harfangs / des Sizerins,,46.731885,-71.304036,,,,,
7261,7261,École de l'Envol,,46.723725,-71.299795,,,,,
8021,8021,Station de l'Aréna,,46.652096,-71.313350,,,,,1
8022,8022,Station de l'Aréna,,46.652110,-71.313096,,,,,2
7260,7260,Laure-Conan / des Rivières,,46.723686,-71.297909,,,,,
970012,97-012,Berlioz / É.-Dallaire,,46.796314,-71.157928,,,,,
5208,5208,du Fleuve - arrêt 5208,,46.751890,-71.249935,,,,,
6184,6184,Bon-Air / des Benoîtes,,46.693950,-71.235703,,,,,
6191,6191,des Draveurs / Beaulieu,,46.695494,-71.245822,,,,,
6430,6430,Ste-Hélène - arrêt 6430,,46.689105,-71.199775,,,,,
6429,6429,Ste-Hélène - arrêt 6429,,46.689101,-71.199271,,,,,
4910,4910,Carillon / des Outardes,,46.701045,-71.186882,,,,,
4906,4906,Manic / Beauharnois,,46.703041,-71.187910,,,,,
2909,2909,des Labours / des Semences,,46.780628,-71.144302,,,,,
2913,2913,des Semences / Harlaka,,46.779303,-71.145257,,,,,
650236,65-236,du Pont / des Érables,,46.587599,-71.211241,,,,,
190140,19-140,St-Augustin / M.-Bégin,,46.671404,-71.228932,,,,,
190150,19-150,St-Augustin / D.-Anderson,,46.673593,-71.227535,,,,,
190160,19-160,St-Augustin / Ste-Hélène,,46.675144,-71.227747,,,,,
525010,52-010,V.-Crêpes / Lagueux,,46.690017,-71.366018,,,,,
525020,52-020,V.-Crêpes - arrêt T25-0020,,46.690774,-71.363224,,,,,
525040,52-040,V.-Crêpes - arrêt T25-0040,,46.692844,-71.356766,,,,,
525060,52-060,V.-Crêpes - arrêt T25-0060,,46.694098,-71.352595,,,,,
525080,52-080,V.-Crêpes - arrêt T25-0080,,46.694728,-71.348141,,,,,
525090,52-090,V.-Crêpes - arrêt T25-0090,,46.695576,-71.344577,,,,,
525100,52-100,V.-Crêpes - arrêt T25-0100,,46.696892,-71.339886,,,,,
525110,52-110,V.-Crêpes - arrêt T25-0110,,46.697754,-71.337190,,,,,
525120,52-120,V.-Crêpes - arrêt T25-0120,,46.699365,-71.330876,,,,,
525130,52-130,V.-Crêpes - arrêt T25-0130,,46.702415,-71.324498,,,,,
525150,52-150,V.-Crêpes - arrêt T25-0150,,46.705734,-71.317638,,,,,
525145,52-145,V.-Crêpes - arrêt T25-0145,,46.705735,-71.317877,,,,,
525125,52-125,V.-Crêpes - arrêt T25-0125,,46.702454,-71.324691,,,,,
525115,52-115,V.-Crêpes - arrêt T25-0115,,46.699439,-71.330986,,,,,
525105,52-105,V.-Crêpes - arrêt T25-0105,,46.697835,-71.337159,,,,,
525095,52-095,V.-Crêpes - arrêt T25-0095,,46.696927,-71.340052,,,,,
525085,52-085,V.-Crêpes - arrêt T25-0085,,46.695636,-71.344694,,,,,
525075,52-075,V.-Crêpes - arrêt T25-0075,,46.694794,-71.348308,,,,,
525055,52-055,V.-Crêpes - arrêt T25-0055,,46.694186,-71.352573,,,,,
525035,52-035,V.-Crêpes - arrêt T25-0035,,46.692899,-71.356937,,,,,
525015,52-015,V.-Crêpes - arrêt T25-0015,,46.690888,-71.363165,,,,,
525005,52-005,V.-Crêpes / Lagueux,,46.690029,-71.366434,,,,,
5403,5403,5e Rue / Taniata,,46.743585,-71.224391,,,,,
7359,7359,des Genévriers / M.-Victorin,,46.712798,-71.356415,,,,,
990113,,Sainte-Foy / Marois,,46.791562,-71.262039,,,,,
990114,,Sainte-Foy / Marois,,46.791803,-71.261551,,,,,
3499,3499,du P.-Kennedy / W.-Hallé,,46.785416,-71.161927,,,,,
3500,3500,du P.-Kennedy / W.-Hallé,,46.785464,-71.162551,,,,,
5418,5418,Beaumont / de St-Romuald,,46.748856,-71.226021,,,,,
1065,1065,des Riveurs - arrêt 1065,,46.815837,-71.112161,,,,,2
1066,1066,des Riveurs - arrêt 1066,,46.816067,-71.112814,,,,,2
7279,7279,de l'Estran / des Aigrettes,,46.729081,-71.312381,,,,,
7280,7280,de l'Estran / Marie-Victorin,,46.728543,-71.311782,,,,,
7844,7844,J.-Demers / S.-M.-Chartrand,,46.726173,-71.308158,,,,,
7851,7851,J.-Demers / des Rivières,,46.719969,-71.299151,,,,,
6730,6730,des Églises / de l'E.-Vive,,46.716330,-71.269947,,,,,
3947,3947,des Îles / G.-Couture,,46.769471,-71.201184,,,,,
990102,99-102,Hochelaga / Lavigerie,,46.766853,-71.296194,,,,,
990101,99-101,Hochelaga / Lavigerie,,46.766662,-71.295820,,,,,
990103,99-103,de l'Église / W.-Légaré,,46.769519,-71.292149,,,,,
990104,99-104,de l'Église / W.-Légaré,,46.769738,-71.292586,,,,,
990106,99-106,de l'Église / R.-Beaudin,,46.772144,-71.296050,,,,,
990105,99-105,de l'Église / L'Isle-Dieu,,46.772726,-71.296694,,,,,
3001,3001,Terminus de la Traverse,,46.810224,-71.187748,,,,,1
3002,3002,Station L'Anglicane,,46.808212,-71.184718,,,,,2
3003,3003,Station L'Anglicane,,46.808327,-71.184446,,,,,1
3004,3004,Station M.-Mallet,,46.810987,-71.183209,,,,,2
3005,3005,Station M.-Mallet,,46.810547,-71.183243,,,,,1
3006,3006,Station Collège de Lévis,,46.812784,-71.182082,,,,,1
3007,3007,Station Collège de Lévis,,46.812132,-71.182384,,,,,2
3008,3008,Station H.-Dieu de Lévis,,46.815746,-71.178909,,,,,2
3009,3009,Station H.-Dieu de Lévis,,46.815916,-71.178390,,,,,1
1002,1002,Station de Bienville,,46.818117,-71.175926,,,,,1
1001,1001,Station de Bienville,,46.817777,-71.176057,,,,,2
1006,1006,Station des Laurentides,,46.821306,-71.172201,,,,,1
1005,1005,Station des Laurentides,,46.821425,-71.171826,,,,,1
1008,1008,Station Mercier,,46.823644,-71.168907,,,,,1
1007,1007,Station Mercier,,46.823753,-71.168550,,,,,1
1010,1010,Station Jolliet,,46.825311,-71.166367,,,,,1
1009,1009,Station Jolliet,,46.825471,-71.165801,,,,,1
1012,1012,Station J.-Cartier,,46.824392,-71.164450,,,,,2
1013,1013,Station de la Marine,,46.822726,-71.162333,,,,,2
1014,1014,Station Massé,,46.822857,-71.161664,,,,,2
1015,1015,Station C. de plein air,,46.821604,-71.160555,,,,,2
1016,1016,Station C. de plein air,,46.821398,-71.160120,,,,,1
1017,1017,Station Parc de la paix,,46.819666,-71.160095,,,,,2
1020,1020,Station CHSLD Bellevue,,46.818708,-71.156900,,,,,1
1021,1021,Station du V.-Fort,,46.818193,-71.156027,,,,,2
1022,1022,Station du V.-Fort,,46.818105,-71.155401,,,,,1
1023,1023,Station Cégep de Lévis,,46.816353,-71.153059,,,,,1
1024,1024,Station Cégep de Lévis,,46.816135,-71.152244,,,,,1
1025,1025,Station Aréna A.-Lacroix,,46.814471,-71.151415,,,,,1
1026,1026,Station Aréna A.-Lacroix,,46.813909,-71.152522,,,,,1
1027,1027,Station E.-J.-Massicotte,,46.813370,-71.154870,,,,,1
1028,1028,Station E.-J.-Massicotte,,46.813116,-71.155024,,,,,2
1029,1029,Station M.-Ferron,,46.811311,-71.159437,,,,,1
1030,1030,Station M.-Ferron,,46.810812,-71.159576,,,,,1
3011,3011,Station P.-É.-Borduas,,46.808892,-71.161735,,,,,2
3010,3010,Station P.-É.-Borduas,,46.809139,-71.161139,,,,,2
3013,3013,Station St-Omer,,46.807018,-71.163499,,,,,1
3012,3012,Station St-Omer,,46.805726,-71.164228,,,,,1
3015,3015,Station Desjardins - Le 200,,46.803876,-71.166439,,,,,1
3017,3017,Station Desjardins - Le 150,,46.802842,-71.167568,,,,,1
3014,3014,Station Desjardins - Le 6500,,46.804118,-71.165765,,,,,1
3019,3019,Station de la Coop.-Desjardins,,46.800967,-71.169712,,,,,1
3016,3016,Station Desjardins - Le 6300,,46.802471,-71.167533,,,,,1
3021,3021,Station Galeries Chagnon,,46.798055,-71.173426,,,,,1
3018,3018,Station de la Coop.-Desjardins,,46.800632,-71.169655,,,,,2
20225,02-225,Station St-Édouard,,46.794627,-71.178209,,,,,1
3020,3020,Station Galeries Chagnon,,46.797474,-71.173755,,,,,1
20235,02-235,Station Fortier,,46.791798,-71.182119,,,,,1
20240,02-240,Station St-Édouard,,46.793846,-71.178893,,,,,1
20245,02-245,Station C.-Rodrigue,,46.788742,-71.186412,,,,,1
20250,02-250,Station Lamartine,,46.792033,-71.181424,,,,,1
20255,02-255,Station J.-A.-Vallée,,46.786283,-71.189095,,,,,1
20260,02-260,Station C.-Rodrigue,,46.789399,-71.185096,,,,,1
20270,02-270,Station J.-A.-Vallée,,46.786820,-71.188388,,,,,1
20275,02-275,Station T.-Chapais,,46.780765,-71.192962,,,,,1
20285,02-285,Station Centre R.-Blais,,46.777997,-71.194896,,,,,1
20290,02-290,Station T.-Chapais,,46.780689,-71.192718,,,,,1
20295,02-295,Station Camiré,,46.776362,-71.196034,,,,,1
20300,02-300,Station Centre R.-Blais,,46.777566,-71.194881,,,,,1
20305,02-305,Station Denis,,46.773015,-71.198374,,,,,1
20310,02-310,Station des Rubis,,46.775178,-71.196559,,,,,1
20315,02-315,Station des îles,,46.769038,-71.201180,,,,,2
20320,02-320,Station Denis,,46.773465,-71.197752,,,,,1
20325,02-325,Station Rivière à la Scie,,46.765271,-71.205056,,,,,1
20330,02-330,Station des îles,,46.769028,-71.200834,,,,,2
20335,02-335,Station A.-Plante,,46.763303,-71.210271,,,,,1
20340,02-340,Station Rivière à la Scie,,46.765234,-71.204631,,,,,2
20345,02-345,Station Gravel,,46.762709,-71.213683,,,,,1
20350,02-350,Station A.-Plante,,46.763137,-71.210198,,,,,2
20355,02-355,Station du V.-Moulin,,46.762485,-71.218950,,,,,2
20360,02-360,Station Gravel,,46.762586,-71.213165,,,,,2
20365,02-365,Station St-Laurent,,46.762284,-71.224081,,,,,1
20370,02-370,Station du V.-Moulin,,46.762333,-71.218354,,,,,2
20375,02-375,Station Rivière Etchemin,,46.759125,-71.228957,,,,,1
20380,02-380,Station St-Laurent,,46.762127,-71.223631,,,,,2
20385,02-385,Station de la G.-Hermine,,46.756935,-71.230569,,,,,1
20390,02-390,Station Rivière Etchemin,,46.759298,-71.228492,,,,,1
20395,02-395,Station de St-Romuald,,46.754308,-71.234966,,,,,1
20400,02-400,Station de la G.-Hermine,,46.756504,-71.230691,,,,,1
5013,5013,Station Taniata,,46.752355,-71.239302,,,,,1
20410,02-410,Station de St-Romuald,,46.754131,-71.234890,,,,,1
20415,02-415,Station 02-0415,,46.750221,-71.243165,,,,,1
20420,02-420,Station Taniata,,46.752258,-71.239044,,,,,1
20425,02-425,Station PRB Desneiges,,46.748392,-71.244780,,,,,1
20435,02-435,Station Wilson,,46.745884,-71.246856,,,,,2
20440,02-440,Station PRB Desneiges,,46.747894,-71.244871,,,,,2
20445,02-445,Station 02-0445,,46.743912,-71.248390,,,,,1
20450,02-450,Station Wilson,,46.745707,-71.246650,,,,,2
20455,02-455,Station de Mercure,,46.736831,-71.258946,,,,,1
20460,02-460,Station Le 1660 G.-Couture,,46.743983,-71.248030,,,,,2
20465,02-465,Station E.-Lacasse,,46.734952,-71.263411,,,,,1
20470,02-470,Station de Mercure,,46.736646,-71.258767,,,,,1
20482,02-482,Station CLSC St-Romuald,,46.734937,-71.262791,,,,,1
20485,02-485,Station du Sault,,46.732808,-71.268377,,,,,2
5047,5047,Station de la Concorde,,46.731375,-71.276112,,,,,1
5044,5044,Station du Sault,,46.732653,-71.267997,,,,,1
5051,5051,Station de la Presqu'île,,46.739411,-71.282165,,,,,1
5048,5048,Station de la Concorde,,46.730984,-71.275767,,,,,1
20515,,Station Lavigerie,,46.764843,-71.292707,,,,,1
20520,,Station Lavigerie,,46.764766,-71.293426,,,,,1
20522,,Station de l'Église,,46.766406,-71.290373,,,,,1
20525,,Station Germain-des-Prés,,46.768108,-71.286274,,,,,1
20530,,Station Germain-des-Prés,,46.768613,-71.286019,,,,,1
20535,,Station CHUL,,46.769439,-71.283701,,,,,1
20540,,Station CHUL,,46.769789,-71.283797,,,,,1
20545,,Station Place de la Cité,,46.771116,-71.280543,,,,,1
20550,,Station Place de la Cité,,46.771020,-71.281354,,,,,1
20555,,Station Beneva,,46.772757,-71.277320,,,,,1
20560,,Station Beneva,,46.773363,-71.276909,,,,,1
20565,,Station Hochelaga,,46.775378,-71.276860,,,,,1
20575,,Station de la Foresterie,,46.780207,-71.278488,,,,,1
20580,,Station Université Laval,,46.779224,-71.270930,,,,,1
20585,,Station Stade Telus,,46.782100,-71.281186,,,,,1
20590,,Station Bibliothèques,,46.782024,-71.271939,,,,,1
20595,,Station des Quatre-Bourgeois,,46.783984,-71.283990,,,,,1
20600,,Station de la Terrasse,,46.783237,-71.273424,,,,,1
20610,,Station du PEPS,,46.785833,-71.276561,,,,,1
30020,03-020,Terminus Lagueux,,46.671764,-71.340733,,,,,1
30035,03-035,Station des Argousiers,,46.668538,-71.336003,,,,,2
30040,03-040,Station des Argousiers,,46.668593,-71.336308,,,,,1
30045,03-045,Station 03-0045,,46.665601,-71.331935,,,,,2
30050,03-050,Station 03-0050,,46.666025,-71.332790,,,,,1
30055,03-055,Station du B.-Accueil,,46.664058,-71.329802,,,,,2
30060,03-060,Station du B.-Accueil,,46.664068,-71.330075,,,,,1
30065,03-065,Station P.-St-Jean,,46.661935,-71.326851,,,,,2
30070,03-070,Station Petit-St-Jean,,46.661964,-71.327139,,,,,1
30075,03-075,Station du Bosquet,,46.659952,-71.324083,,,,,2
30080,03-080,Station du Bosquet,,46.660122,-71.324596,,,,,1
30085,03-085,Station des Trembles,,46.656681,-71.319578,,,,,2
30090,03-090,Station des Trembles,,46.656801,-71.320003,,,,,1
30095,03-095,Station A.-Rousseau,,46.653143,-71.314519,,,,,2
30100,03-100,Station A.-Rousseau,,46.652924,-71.314545,,,,,1
30105,03-105,Station du Lin,,46.650034,-71.310110,,,,,1
30110,03-110,Station du Lin,,46.649838,-71.310106,,,,,1
30115,03-115,Station G.-Bilodeau,,46.650076,-71.305389,,,,,2
30120,03-120,Station G.-Bilodeau,,46.650099,-71.304917,,,,,2
30125,03-125,Station PRB de St-É.-de-Lauzon,,46.651812,-71.301066,,,,,2
30130,03-130,Station PRB de St-É.-de-Lauzon,,46.651540,-71.301342,,,,,1
30135,03-135,Station Bélanger,,46.653111,-71.296813,,,,,2
30140,03-140,Station Bélanger,,46.652997,-71.296738,,,,,2
30145,03-145,Station M.-Fleurs,,46.656605,-71.291956,,,,,2
30150,03-150,Station M.-Fleurs,,46.657171,-71.290874,,,,,2
30155,03-155,Station des Cigales,,46.659527,-71.288777,,,,,2
30160,03-160,Station des Cigales,,46.659232,-71.288787,,,,,2
30165,03-165,Station Paradis,,46.663853,-71.280676,,,,,2
30170,03-170,Station Paradis,,46.663542,-71.281193,,,,,2
30175,03-175,Station 03-0175,,46.664903,-71.273594,,,,,2
30180,03-180,Station 03-0180,,46.664645,-71.274374,,,,,2
30185,03-185,Station 03-0185,,46.666098,-71.268647,,,,,2
30187,03-187,Station 03-0187,,46.667498,-71.265465,,,,,2
30190,03-190,Station 03-0190,,46.665944,-71.268654,,,,,2
30192,03-192,Station 03-0192,,46.667578,-71.264920,,,,,2
30195,03-195,Station 03-0195,,46.669359,-71.262929,,,,,2
30200,03-200,Station 03-0200,,46.669292,-71.262754,,,,,2
30205,03-205,Station 03-0205,,46.671683,-71.262162,,,,,2
30207,03-207,Station 03-0207,,46.673561,-71.262608,,,,,2
30210,03-210,Station 03-0210,,46.671445,-71.261977,,,,,2
30212,03-212,Station 03-0212,,46.673836,-71.262477,,,,,2
30215,03-215,Station de la Toucanière,,46.680811,-71.267821,,,,,2
30220,03-220,Station de la Toucanière,,46.680992,-71.267844,,,,,2
30225,03-225,Station Doyle,,46.683952,-71.270586,,,,,2
30227,03-227,Station Boucher,,46.686008,-71.272173,,,,,2
30230,03-230,Station Doyle,,46.683798,-71.270280,,,,,2
30232,03-232,Station Boucher,,46.686085,-71.271990,,,,,2
30235,03-235,Station de St-Denis,,46.691179,-71.279917,,,,,2
30237,03-237,Station du Faubourg,,46.692832,-71.282394,,,,,1
30240,03-240,Station de St-Denis,,46.691358,-71.279885,,,,,2
30242,03-242,Station du Faubourg,,46.692558,-71.281797,,,,,2
30245,03-245,Station de l'Anse,,46.695454,-71.284022,,,,,2
30250,03-250,Station de l'Anse,,46.695743,-71.283949,,,,,2
30255,03-255,Station PRB de St-Rédempteur,,46.697476,-71.284757,,,,,1
30260,03-260,Station PRB de St-Rédempteur,,46.697806,-71.284714,,,,,1
30265,03-265,Station G.-Laliberté,,46.698704,-71.285225,,,,,2
30270,03-270,Station G.-Laliberté,,46.698763,-71.285095,,,,,2
30275,03-275,Station H.-Pelletier,,46.702719,-71.286443,,,,,1
30280,03-280,Station Bellerive,,46.702370,-71.286106,,,,,1
30285,03-285,Station du S.-Bois,,46.705453,-71.286604,,,,,2
30290,03-290,Station de la Clairière,,46.705744,-71.286375,,,,,1
30295,03-295,Station de l'Escale,,46.709527,-71.288383,,,,,1
30300,03-300,Station de l'Escale,,46.709786,-71.288303,,,,,1
30305,03-305,Station de Bernières,,46.711282,-71.290922,,,,,1
30310,03-310,Station de la Traversière,,46.711695,-71.290997,,,,,1
7002,7002,Station Plante,,46.717043,-71.298661,,,,,2
7001,7001,Station Plante,,46.717416,-71.298554,,,,,1
7006,7006,Station J.-Demers,,46.720112,-71.298887,,,,,2
7005,7005,Station J.-Demers,,46.720326,-71.298498,,,,,2
7010,7010,Station École de l'Envol,,46.723923,-71.297647,,,,,1
7009,7009,Station École de l'Envol,,46.723521,-71.297501,,,,,1
7014,7014,Station PRB des Rivières,,46.728778,-71.296067,,,,,1
7013,7013,Station PRB des Rivières,,46.728293,-71.295960,,,,,1
7018,7018,Station Cayer,,46.732507,-71.294872,,,,,2
7017,7017,Station de la Flore,,46.732222,-71.294715,,,,,2
7020,7020,Station Laflamme,,46.733913,-71.294416,,,,,2
7019,7019,Station Laflamme,,46.733465,-71.294304,,,,,2
7022,7022,Station A.-M.-Filteau,,46.735593,-71.293903,,,,,2
7021,7021,Station A.-M.-Filteau,,46.735566,-71.293667,,,,,2
7025,7025,Station de l'A.-Gingras,,46.738174,-71.292435,,,,,2
7026,7026,Station H.-Poirier,,46.738428,-71.292418,,,,,2
7029,7029,Station du Panorama,,46.739154,-71.290076,,,,,2
3826,3826,St-Laurent / Caldwell,,46.818682,-71.183723,,,,,
3825,3825,St-Laurent / Caldwell,,46.818763,-71.183854,,,,,
3679,3679,Fraser / St-Laurent,,46.819355,-71.181282,,,,,1
3179,3179,Fraser / St-Laurent,,46.819432,-71.181159,,,,,1
110035,11-035,St-Joseph / de Bienville,,46.819935,-71.178602,,,,,1
110040,11-040,St-Joseph / de Bienville,,46.819956,-71.179053,,,,,1
110045,11-045,St-Joseph / Fagot,,46.820476,-71.175521,,,,,1
110047,11-047,St-Joseph / Orléans,,46.820702,-71.174030,,,,,1
110050,11-050,St-Joseph / Fagot,,46.820554,-71.175608,,,,,1
110055,11-055,St-Joseph / St-Narcisse O.,,46.826082,-71.164250,,,,,1
110060,11-060,St-Joseph / Orléans,,46.820830,-71.173848,,,,,1
110065,11-065,St-Joseph / G.-D.-Davie,,46.826636,-71.161801,,,,,1
110070,11-070,St-Joseph / St-Narcisse O.,,46.826255,-71.164167,,,,,1
110075,11-075,St-Joseph / Bourassa,,46.827037,-71.160391,,,,,1
110080,11-080,St-Joseph / St-Narcisse E.,,46.826488,-71.162738,,,,,1
110085,11-085,St-Joseph / du M.-Ruel,,46.826733,-71.157015,,,,,1
110090,11-090,St-Joseph / Bourassa,,46.827132,-71.160455,,,,,1
110095,11-095,St-Joseph / Ste-Marie,,46.827345,-71.153788,,,,,1
110100,11-100,St-Joseph / du M.-Ruel,,46.826899,-71.156421,,,,,1
110105,11-105,St-Joseph / A.-Boutin,,46.827659,-71.150231,,,,,1
110110,11-110,St-Joseph / Ste-Marie,,46.827500,-71.153536,,,,,1
110115,11-115,St-Joseph / Ménard,,46.827500,-71.147221,,,,,1
110120,11-120,St-Joseph / A.-Boutin,,46.827739,-71.150582,,,,,1
110125,11-125,St-Joseph / P.-Bouchard,,46.826994,-71.145602,,,,,1
110127,11-127,St-Joseph / Côte Gilmour,,46.826473,-71.143954,,,,,1
110130,11-130,St-Joseph / Ménard,,46.827574,-71.147111,,,,,1
110135,11-135,St-Joseph / J.-E.-Paré,,46.826049,-71.141548,,,,,1
110140,11-140,St-Joseph / P.-Bouchard,,46.827160,-71.145766,,,,,1
110145,11-145,St-Joseph / Parent,,46.826238,-71.139209,,,,,1
110150,11-150,St-Joseph / Côte Gilmour,,46.826719,-71.144392,,,,,1
110155,11-155,St-Joseph / des Chanterelles,,46.826396,-71.135994,,,,,1
110160,11-160,St-Joseph / J.-E.-Paré,,46.826144,-71.141985,,,,,1
110165,11-165,École du Ruisseau,,46.826137,-71.133332,,,,,1
110170,11-170,St-Joseph / Parent,,46.826351,-71.139068,,,,,1
110175,11-175,St-Joseph / des Bolets,,46.825768,-71.131459,,,,,1
110177,11-177,St-Joseph - arrêt 11-0177,,46.825203,-71.128576,,,,,1
110180,11-180,St-Joseph / des Chanterelles,,46.826511,-71.135898,,,,,2
110185,11-185,St-Joseph - arrêt 11-0185,,46.824923,-71.126855,,,,,1
110190,11-190,École du Ruisseau,,46.826249,-71.133298,,,,,2
110195,11-195,St-Joseph - arrêt 11-0195,,46.824367,-71.121723,,,,,2
110200,11-200,St-Joseph / des Bolets,,46.825892,-71.131406,,,,,2
110205,11-205,Pointe de la Martinière,,46.823626,-71.117591,,,,,2
110207,11-207,St-Joseph / G.-Couture,,46.823166,-71.115564,,,,,2
110210,11-210,St-Joseph - arrêt 11-0210,,46.825440,-71.129121,,,,,2
110215,11-215,Lallemand / Goupil,,46.821352,-71.113036,,,,,2
110220,11-220,St-Joseph - arrêt 11-0220,,46.825086,-71.127142,,,,,2
110225,11-225,Lallemand / Jogues,,46.819602,-71.110607,,,,,2
110230,11-230,St-Joseph - arrêt 11-0230,,46.824331,-71.121086,,,,,2
110235,11-235,Lallemand / de Berry,,46.817513,-71.107565,,,,,2
110240,11-240,Pointe de la Martinière,,46.823779,-71.117854,,,,,2
110245,11-245,Lallemand / des Riveurs,,46.815262,-71.104386,,,,,2
110247,11-247,Parc industriel de Lauzon,,46.819133,-71.123294,,,,,2
110250,11-250,St-Joseph / G.-Couture,,46.823346,-71.115779,,,,,2
110255,11-255,des Calfats / G.-Couture,,46.822150,-71.125992,,,,,2
110260,11-260,Lallemand / Goupil,,46.821288,-71.112692,,,,,1
110265,11-265,G.-Couture - arrêt 11-0265,,46.821450,-71.129247,,,,,1
110270,11-270,Lallemand / Jogues,,46.819557,-71.110236,,,,,1
110275,11-275,G.-Couture / des Abricotiers,,46.820832,-71.131221,,,,,1
110280,11-280,Lallemand / de Berry,,46.817470,-71.107235,,,,,1
1053,1053,G.-Couture / du F.-Chambly,,46.820007,-71.133877,,,,,1
110290,11-290,Parc industriel de Lauzon,,46.818895,-71.123203,,,,,2
1055,1055,G.-Couture - arrêt 1055,,46.819041,-71.136877,,,,,1
110300,11-300,G.-Couture / des Calfats,,46.822143,-71.126366,,,,,2
1057,1057,G.-Couture / Langelier,,46.817943,-71.140372,,,,,1
110310,11-310,G.-Couture - arrêt 11-0310,,46.821324,-71.129059,,,,,2
1059,1059,G.-Couture / Caron,,46.816793,-71.144028,,,,,1
1052,1052,G.-Couture / J.-Marchand,,46.820553,-71.131506,,,,,2
110325,11-325,C.-Poiré / H.-Bernier,,46.816821,-71.146864,,,,,1
1054,1054,G.-Couture / du F.-Chambly,,46.819574,-71.134533,,,,,2
110335,11-335,H.-Bernier - arrêt 11-0335,,46.818525,-71.146869,,,,,1
1058,1058,G.-Couture / Langelier,,46.817621,-71.140741,,,,,1
110345,11-345,H.-Bernier / P.-Romain,,46.820018,-71.147734,,,,,1
110350,11-350,C.-Poiré / Caron,,46.817202,-71.144995,,,,,2
110355,11-355,H.-Bernier / Blériot,,46.821147,-71.149332,,,,,1
110360,11-360,C.-Poiré / H.-Bernier,,46.816708,-71.147068,,,,,1
110370,11-370,H.-Bernier - arrêt 11-0370,,46.818355,-71.146961,,,,,1
110375,11-375,du V.-Fort / L.-P.-Guay,,46.823998,-71.152455,,,,,1
110380,11-380,H.-Bernier / P.-Romain,,46.819824,-71.147814,,,,,1
110385,11-385,du V.-Fort / des Castels,,46.822633,-71.153415,,,,,2
110390,11-390,H.-Bernier / Blériot,,46.820909,-71.149248,,,,,1
110405,11-405,du V.-Fort / de la Châtelaine,,46.820298,-71.154611,,,,,1
110410,11-410,du V.-Fort / Caron,,46.824068,-71.152051,,,,,1
110415,11-415,Station du V.-Fort,,46.818316,-71.155719,,,,,1
110420,11-420,du V.-Fort / St-Luc,,46.822449,-71.153283,,,,,1
110425,11-425,Champagnat / Mgr-Bourget,,46.818793,-71.160080,,,,,2
110435,11-435,Champagnat / de Courcelette,,46.816791,-71.163252,,,,,2
110440,11-440,du Vieux-Fort / de la Châtelaine,,46.820513,-71.154287,,,,,1
110445,11-445,Champagnat / du C.-Laliberté,,46.814660,-71.165966,,,,,2
110450,11-450,Station du V.-Fort,,46.818402,-71.155387,,,,,1
110455,11-455,Champagnat / Bolduc,,46.813120,-71.167765,,,,,2
110460,11-460,Champagnat / Mgr-Bourget,,46.818700,-71.159964,,,,,2
110465,11-465,Champagnat / d'Artimon,,46.810232,-71.170980,,,,,2
110470,11-470,Champagnat / de Courcelette,,46.816579,-71.163324,,,,,1
110475,11-475,Champagnat / D'Aubigny,,46.808382,-71.173247,,,,,2
110480,11-480,Champagnat / du C.-Laliberté,,46.814486,-71.165901,,,,,1
110485,11-485,École Champagnat,,46.806639,-71.175398,,,,,2
110490,11-490,Champagnat / du Maçon,,46.812790,-71.167884,,,,,1
110495,11-495,Champagnat / V.-Plante,,46.804827,-71.176691,,,,,2
110500,11-500,Champagnat / St-Omer,,46.811422,-71.169517,,,,,1
110505,11-505,Champagnat / A.-Desjardins,,46.803584,-71.177779,,,,,2
110510,11-510,Champagnat / V.-Chagnon,,46.809925,-71.171107,,,,,1
3127,3127,A.-Desjardins / V.-Chagnon,,46.802243,-71.176337,,,,,1
110520,11-520,Champagnat / D'Aubigny,,46.808037,-71.173430,,,,,1
3129,3129,A.-Desjardins / des Commandeurs,,46.800876,-71.174312,,,,,1
110530,11-530,École Champagnat,,46.806268,-71.175423,,,,,1
3053,3053,Galeries Chagnon - A.-Desjardins,,46.797748,-71.170250,,,,,1
110540,11-540,Champagnat / V.-Plante,,46.804545,-71.176719,,,,,1
3055,3055,A.-Desjardins - arrêt 3055,,46.795201,-71.166503,,,,,1
3625,3625,A.-Desjardins / Champagnat,,46.803193,-71.177520,,,,,2
3133,3133,A.-Desjardins / É.-Dallaire,,46.793362,-71.163919,,,,,1
3627,3627,A.-Desjardins / V.-Chagnon,,46.802484,-71.176211,,,,,1
3135,3135,Station UQAR - A.-Desjardins,,46.791931,-71.161823,,,,,1
3629,3629,A.-Desjardins / des Commandeurs,,46.801149,-71.174146,,,,,1
3137,3137,Centre des congrès,,46.790563,-71.163340,,,,,1
3052,3052,Galeries Chagnon - A.-Desjardins,,46.798096,-71.170186,,,,,1
3139,3139,Clinique médicale L.-métro - Métivier,,46.791610,-71.165112,,,,,2
3635,3635,Station UQAR - A.-Desjardins,,46.792765,-71.162432,,,,,1
3637,3637,Centre des congrès,,46.790445,-71.163654,,,,,1
3059,3059,É.-Dallaire / du P.-Kennedy,,46.790749,-71.168293,,,,,2
3639,3639,Clinique médicale L.-métro - Métivier,,46.791454,-71.165142,,,,,2
3061,3061,du P.-Kennedy - arrêt 3061,,46.791557,-71.170882,,,,,1
3063,3063,du P.-Kennedy / Bossuet,,46.792812,-71.172694,,,,,1
3058,3058,É.-Dallaire / du P.-Kennedy,,46.790529,-71.168214,,,,,2
3065,3065,du P.-Kennedy / G.-Couture,,46.794611,-71.175291,,,,,1
3060,3060,du P.-Kennedy - arrêt 3060,,46.791604,-71.171342,,,,,1
110645,11-645,St-Édouard / Pie-X,,46.796060,-71.181656,,,,,1
3062,3062,du P.-Kennedy / Bossuet,,46.792936,-71.173225,,,,,1
110655,11-655,St-Édouard / St-Georges,,46.797092,-71.183169,,,,,1
110657,11-657,St-Édouard / de la B.-de-Carillon,,46.798365,-71.184968,,,,,1
3064,3064,du P.-Kennedy / G.-Couture,,46.794313,-71.175342,,,,,1
110665,11-665,St-Édouard / de L'Espérance,,46.799259,-71.186304,,,,,1
110670,11-670,Station St-Édouard,,46.794386,-71.179500,,,,,1
110675,11-675,St-Louis / du C.-Roi,,46.801164,-71.186475,,,,,1
110677,11-677,St-Louis / St-Urbain,,46.802276,-71.185701,,,,,2
110680,11-680,St-Édouard / Pie-X,,46.796067,-71.181938,,,,,1
110685,11-685,St-Louis / St-Onésime,,46.803446,-71.185186,,,,,1
110690,11-690,St-Édouard / St-Georges,,46.797242,-71.183633,,,,,1
110695,11-695,St-Louis / D.-Desjardins,,46.805220,-71.183476,,,,,1
110700,11-700,St-Édouard / de la B.-de-Carillon,,46.798066,-71.184859,,,,,1
3163,3163,Bégin / St-Thomas,,46.807469,-71.182134,,,,,1
110710,11-710,St-Édouard / de L'Espérance,,46.799040,-71.186298,,,,,1
3165,3165,du M.-Marie / Guenette,,46.809840,-71.181503,,,,,1
110720,11-720,St-Louis / du C.-Roi,,46.801414,-71.186473,,,,,1
3167,3167,Collège de Lévis - du M.-Marie,,46.811032,-71.178988,,,,,1
110730,11-730,St-Louis / St-Urbain,,46.802410,-71.185742,,,,,1
3169,3169,du M.-Marie / des Hospitalières,,46.812706,-71.176250,,,,,2
110740,11-740,St-Louis / St-Onésime,,46.803581,-71.185254,,,,,1
3173,3173,St-Omer / du M.-Marie,,46.814786,-71.174784,,,,,1
3663,3663,Bégin / St-Thomas,,46.807611,-71.182224,,,,,1
3665,3665,du M.-Marie / Guenette,,46.809837,-71.181852,,,,,1
3667,3667,Collège de Lévis - du M.-Marie,,46.811091,-71.179316,,,,,2
3669,3669,du M.-Marie / des Hospitalières,,46.812930,-71.176210,,,,,2
3673,3673,St-Omer / du M.-Marie,,46.814557,-71.174746,,,,,1
3675,3675,H.-Dieu de Lévis - St-Omer,,46.816115,-71.176995,,,,,1
110258,11-258,Lallemand / G.-Couture,,46.822496,-71.114585,,,,,1
120004,12-004,G.-Couture / des Noisetiers,,46.823008,-71.122685,,,,,
120005,12-005,G.-Couture / des Noisetiers,,46.822851,-71.122953,,,,,
120010,12-010,des Pruniers / des Sorbiers,,46.822600,-71.126312,,,,,
120015,12-015,des Pruniers / des Sorbiers,,46.822878,-71.126912,,,,,
120020,12-020,des Pruniers / des Sorbiers,,46.823688,-71.127844,,,,,
120025,12-025,des Pruniers / des Sorbiers,,46.823847,-71.128326,,,,,
120030,12-030,des Pruniers / des Pommiers,,46.823548,-71.129590,,,,,
120035,12-035,des Pommiers / des Pruniers,,46.823389,-71.129702,,,,,
120040,12-040,des Abricotiers / des Noyers,,46.821726,-71.131764,,,,,
120045,12-045,des Abricotiers / des Noyers,,46.821477,-71.131681,,,,,
120046,12-046,Caron / des Laquiers,,46.818890,-71.145953,,,,,
120048,12-048,Caron / P.-Romain,,46.820087,-71.146629,,,,,
120050,12-050,Caron / des Traversiers,,46.821162,-71.147569,,,,,
120052,12-052,Caron / V.-Ouellet,,46.822845,-71.150281,,,,,
120060,12-060,des Gaspésiennes / du Tadoussac,,46.822520,-71.147335,,,,,
120070,12-070,des Gaspésiennes / des B.-Glaces,,46.822555,-71.144759,,,,,
120080,12-080,des Gaspésiennes / Langelier,,46.821100,-71.142259,,,,,
120090,12-090,Langelier / des Chalands,,46.818922,-71.142079,,,,,
120100,12-100,Langelier / G.-Couture,,46.817890,-71.140755,,,,,
120110,12-110,des Capucines / des Jacinthes,,46.817655,-71.138762,,,,,
120120,12-120,des Jacinthes / des Mimosas,,46.815994,-71.138595,,,,,
120130,12-130,des Mimosas / des Lilas,,46.814913,-71.141034,,,,,
1060,1060,G.-Couture / des Lilas,,46.816823,-71.143284,,,,,1
1061,1061,G.-Couture - arrêt 1061,,46.816065,-71.146348,,,,,1
1063,1063,G.-Couture / Mgr-Bourget,,46.815250,-71.148945,,,,,1
1062,1062,G.-Couture / des Violettes,,46.815628,-71.147032,,,,,1
1064,1064,G.-Couture / Mgr-Bourget,,46.814864,-71.149455,,,,,1
120170,12-170,des Forts - arrêt 12-0170,,46.811939,-71.149243,,,,,
120180,12-180,des Forts - arrêt 12-0180,,46.810409,-71.151652,,,,,
120185,12-185,des Forts - arrêt 12-0185,,46.812035,-71.148861,,,,,
120190,12-190,des Forts - arrêt 12-0190,,46.809129,-71.152760,,,,,
120195,12-195,des Forts - arrêt 12-0195,,46.810343,-71.151535,,,,,
120200,12-200,des Forts / O.-Leduc,,46.806966,-71.154165,,,,,
120205,12-205,des Forts - arrêt 12-0205,,46.809059,-71.152658,,,,,
120210,12-210,M.-Ferron / O.-Leduc,,46.808339,-71.155395,,,,,
120215,12-215,O.-Leduc / des Forts,,46.806811,-71.154331,,,,,
120220,12-220,M.-Ferron / L.-Ruelland,,46.809327,-71.156819,,,,,
120225,12-225,M.-Ferron / O.-Leduc,,46.808125,-71.155376,,,,,
120230,12-230,Station M.-Ferron,,46.810672,-71.158762,,,,,
120235,12-235,M.-Ferron / L.-Ruelland,,46.809273,-71.157025,,,,,
120295,12-295,V.-Chagnon / du Charbonnier,,46.807722,-71.169702,,,,,
120305,12-305,Stade G.-Maranda,,46.806024,-71.171947,,,,,
120310,12-310,École P.-Lévy / C. jeunesse,,46.803201,-71.174869,,,,,
120315,12-315,Aréna de Lévis,,46.804197,-71.173671,,,,,
120320,12-320,École P.-Lévy - V.-Chagnon,,46.802443,-71.175911,,,,,
120325,12-325,École P.-Lévy - V.-Chagnon,,46.802552,-71.175457,,,,,
3809,3809,A.-Desjardins / St-Georges,,46.804226,-71.179247,,,,,
120340,12-340,St-Georges / Leblanc,,46.805900,-71.179203,,,,,
120350,12-350,St-Georges / Guenette,,46.807208,-71.178630,,,,,
120360,12-360,St-Georges / Mgr-Gosselin,,46.808905,-71.177444,,,,,
120380,12-380,École M.-Mallet - Déziel,,46.809608,-71.184847,,,,,
130005,13-005,du P.-Kennedy / G.-Couture,,46.796727,-71.178812,,,,,
130010,13-010,du P.-Kennedy / G.-Couture,,46.796640,-71.178325,,,,,
130015,13-015,du P.-Kennedy / Pie X,,46.797841,-71.180373,,,,,
130020,13-020,du P.-Kennedy / Pie X,,46.797643,-71.179793,,,,,
130025,13-025,St-Georges / du P.-Kennedy,,46.798739,-71.182321,,,,,
130030,13-030,St-Georges / du P.-Kennedy,,46.798934,-71.181720,,,,,
130035,13-035,St-Georges / St-Édouard,,46.797147,-71.183512,,,,,
130040,13-040,St-Georges / St-Édouard,,46.797345,-71.183502,,,,,
130045,13-045,St-Georges / De Salaberry,,46.795063,-71.185419,,,,,
130050,13-050,St-Georges / De Salaberry,,46.795236,-71.185460,,,,,
130055,13-055,St-Georges / Fortier,,46.794069,-71.186187,,,,,
130060,13-060,St-Georges / Baribeau,,46.793980,-71.186429,,,,,
130065,13-065,St-Georges / Deschênes,,46.791326,-71.187571,,,,,
130070,13-070,St-Georges / Lemieux,,46.792137,-71.187340,,,,,
130075,13-075,St-Georges / C.-Rodrigue,,46.790433,-71.188383,,,,,
130080,13-080,St-Georges / C.-Rodrigue,,46.790597,-71.188405,,,,,
130085,13-085,St-Georges / F.-X.-Lemieux,,46.788348,-71.190466,,,,,
130090,13-090,St-Georges / Pelletier,,46.788694,-71.190507,,,,,
130095,13-095,St-Georges / Daigle,,46.786233,-71.191539,,,,,
130100,13-100,St-Georges / Daigle,,46.786377,-71.191590,,,,,
130105,13-105,St-Georges / F.-Thomas Est,,46.784427,-71.193086,,,,,
130110,13-110,St-Georges / F.-Thomas Est,,46.784600,-71.193121,,,,,
130115,13-115,St-Georges / F.-Thomas Ouest,,46.782725,-71.195406,,,,,
130120,13-120,St-Georges / F.-Thomas Ouest,,46.783097,-71.195024,,,,,
130125,13-125,St-Georges / Amyot,,46.781391,-71.197066,,,,,
130127,13-127,St-Georges / J.-Cloutier,,46.779222,-71.198469,,,,,
130130,13-130,St-Georges / Amyot,,46.781587,-71.197036,,,,,
130132,13-132,St-Georges / J.-Cloutier,,46.779539,-71.198649,,,,,
130135,13-135,St-Georges / Hallé,,46.777291,-71.198841,,,,,
130140,13-140,St-Georges / Hallé,,46.777363,-71.198996,,,,,
3302,3302,Station des Rubis,,46.775259,-71.195936,,,,,
130150,13-150,Saint-Georges / Proulx,,46.775286,-71.199823,,,,,
3305,3305,des Rubis / des Zircons,,46.775374,-71.193082,,,,,
3325,3325,T.-Chapais / H.-Fabre,,46.776177,-71.180315,,,,,
3321,3321,T.-Chapais / J.-Laurin,,46.775565,-71.184138,,,,,
3322,3322,T.-Chapais / R.-Lasnier,,46.775844,-71.182564,,,,,
3317,3317,T.-Chapais / H.-Aquin,,46.777377,-71.186991,,,,,
3318,3318,T.-Chapais / H.-Aquin,,46.777355,-71.186681,,,,,
3314,3314,T.-Chapais / des Rubis,,46.778474,-71.188141,,,,,
130305,13-305,R.-Lasnier / H.-Fabre,,46.777651,-71.181294,,,,,
130315,13-315,R.-Lasnier / G.-Guèvremont,,46.779424,-71.178727,,,,,
130320,13-320,R.-Lasnier / G.-Guèvremont,,46.779185,-71.178825,,,,,
130325,13-325,de l'Écho / du Quotidien,,46.780352,-71.175162,,,,,
130330,13-330,de l'Écho / du Quotidien,,46.780326,-71.175447,,,,,
130335,13-335,Hector-Fabre / Alain-Grandbois,,46.780635,-71.183322,,,,,
130340,13-340,Hector-Fabre / Alain-Grandbois,,46.780242,-71.183315,,,,,
130345,13-345,Hector-Fabre / Pierre-Georges-Roy,,46.782454,-71.181593,,,,,
130350,13-350,Hector-Fabre / Pierre-Georges-Roy,,46.782168,-71.181620,,,,,
130355,13-355,C.-Rodrigue / H.-Fabre,,46.784645,-71.179970,,,,,
130360,13-360,H.-Fabre / C.-Rodrigue,,46.784448,-71.179832,,,,,
130365,13-365,C.-Rodrigue / M.-Dugas,,46.785690,-71.181496,,,,,
130370,13-370,C.-Rodrigue / G.-Godin Nord,,46.785625,-71.181111,,,,,
130380,13-380,C.-Rodrigue / Bossuet,,46.786991,-71.183094,,,,,
130405,13-405,Bossuet / Lamartine,,46.789106,-71.179461,,,,,
3354,3354,Flaubert / Lamartine,,46.783566,-71.171974,,,,,
3353,3353,Lamartine / Flaubert,,46.783415,-71.171797,,,,,
3358,3358,Flaubert / Montaigne Ouest,,46.784686,-71.170772,,,,,
3357,3357,Flaubert / J.-Verne,,46.784370,-71.170778,,,,,
3362,3362,Flaubert / Balzac,,46.786359,-71.168936,,,,,
3361,3361,Flaubert / Balzac,,46.786093,-71.169007,,,,,
3366,3366,Flaubert / Montaigne Est,,46.787296,-71.169114,,,,,
3365,3365,Flaubert / Montaigne Est,,46.787257,-71.168775,,,,,
3506,3506,J.-B.-Michaud / du P.-Kennedy,,46.788338,-71.165181,,,,,
3509,3509,Centre des congrès,,46.789624,-71.164179,,,,,
2762,2762,du P.-Kennedy / de Provence,,46.780013,-71.154635,,,,,
3505,3505,J.-B.-Michaud / du P.-Kennedy,,46.788087,-71.165178,,,,,
2758,2758,du P.-Kennedy / Harlaka,,46.777145,-71.150504,,,,,
2754,2754,du P.-Kennedy - arrêt 2754,,46.773748,-71.146355,,,,,
150115,15-115,de Provence / de la Meuse,,46.779580,-71.156514,,,,,
2596,2596,Aubert / du P.-Kennedy,,46.771716,-71.141557,,,,,
150125,15-125,de la Meuse / d'Auvergne,,46.778532,-71.155603,,,,,
2592,2592,Aubert / de la Gironde,,46.772860,-71.139890,,,,,
2588,2588,Aubert / Drouin,,46.774316,-71.137753,,,,,
2761,2761,du P.-Kennedy / du Terroir,,46.780450,-71.154709,,,,,
2584,2584,Drouin / de l'Écuyer,,46.773110,-71.135972,,,,,
2757,2757,du P.-Kennedy / Harlaka,,46.777006,-71.149808,,,,,
2580,2580,Drouin / de l'Allure,,46.771961,-71.134295,,,,,
2753,2753,du P.-Kennedy - arrêt 2753,,46.774139,-71.146015,,,,,
2576,2576,Drouin / A.-Proulx,,46.770605,-71.132335,,,,,
2595,2595,Aubert / du P.-Kennedy,,46.772027,-71.141321,,,,,
2572,2572,des Ruisseaux / Drouin,,46.768734,-71.129108,,,,,
2591,2591,Aubert / de la Gironde,,46.773057,-71.139811,,,,,
2564,2564,A.-Plamondon / P.-Le May,,46.767068,-71.128701,,,,,
2587,2587,Drouin / Aubert,,46.774364,-71.137552,,,,,
2560,2560,A.-Plamondon / F.-A.-Savard,,46.765305,-71.127079,,,,,
2583,2583,Drouin / de l'Écuyer,,46.773040,-71.135649,,,,,
2556,2556,F.-A.-Savard / R.-Lemelin,,46.765329,-71.125965,,,,,
2579,2579,Drouin / de l'Allure,,46.771893,-71.133951,,,,,
2552,2552,F.-Leclerc / L.-Lacoursière,,46.764288,-71.128213,,,,,
2575,2575,Drouin / A.-Proulx,,46.770605,-71.132118,,,,,
2548,2548,Félix-Leclerc / Pamphile-LeMay,,46.765736,-71.130254,,,,,
2571,2571,des Ruisseaux / Drouin,,46.768573,-71.128938,,,,,
2544,2544,F.-Leclerc / des Ruisseaux,,46.766827,-71.131807,,,,,
2567,2567,A.-Plamondon / des Ruisseaux,,46.767722,-71.129470,,,,,
2540,2540,des Ruisseaux / du P.-Kennedy,,46.765834,-71.133382,,,,,
2563,2563,A.-Plamondon / P.-LeMay,,46.766975,-71.128353,,,,,
2536,2536,T.-Wilson / G.-Dumont,,46.762890,-71.134466,,,,,
2559,2559,A.-Plamondon / F.-A.-Savard,,46.765540,-71.127205,,,,,
2532,2532,T.-Wilson / Pintendre,,46.760984,-71.135174,,,,,
2555,2555,R.-Lemelin / F.-A.-Savard,,46.765114,-71.125620,,,,,
2528,2528,Pintendre / des Allonges,,46.758040,-71.131339,,,,,
2551,2551,F.-Leclerc / R.-Lemelin,,46.763879,-71.127831,,,,,
2524,2524,Pintendre / Brouard,,46.756085,-71.128540,,,,,
2547,2547,F.-Leclerc / P.-LeMay,,46.765808,-71.130555,,,,,
2543,2543,des Ruisseaux / F.-Leclerc,,46.766767,-71.132065,,,,,
2539,2539,des Ruisseaux / du P.-Kennedy,,46.764517,-71.133725,,,,,
2520,2520,Pintendre / Mgr-Lagueux,,46.754067,-71.125690,,,,,
2535,2535,T.-Wilson / G.-Dumont,,46.762626,-71.134322,,,,,
2516,2516,Pintendre / A.-Couture,,46.752155,-71.123036,,,,,
2531,2531,Pintendre / T.-Wilson,,46.760770,-71.134984,,,,,
2512,2512,Pintendre / J.-M.-Demers,,46.750961,-71.121310,,,,,
2527,2527,Pintendre / des Allonges,,46.758003,-71.131027,,,,,
2508,2508,Pintendre / du P.-Kennedy,,46.749927,-71.119829,,,,,
2519,2519,Pintendre / Mgr-Lagueux,,46.753899,-71.125218,,,,,
2515,2515,Pintendre / A.-Couture,,46.752057,-71.122608,,,,,
2507,2507,Pintendre / du P.-Kennedy,,46.750137,-71.119882,,,,,
5702,5702,Taniata / G.-Couture,,46.752209,-71.238358,,,,,
5701,5701,Taniata / G.-Couture,,46.751971,-71.238377,,,,,
4710,4710,Taniata / de St-J.-Chrysostome,,46.735298,-71.210813,,,,,
5705,5705,Taniata / Beaupré,,46.749201,-71.234503,,,,,
4814,4814,Taniata / du P.-Industriel,,46.732519,-71.208480,,,,,
5709,5709,Taniata / 3e Rue,,46.747075,-71.231444,,,,,
5713,5713,Taniata / 4e Rue,,46.744754,-71.228052,,,,,
5717,5717,Taniata / 5e Rue,,46.743019,-71.225554,,,,,
4701,4701,Taniata / Beaudoin,,46.737240,-71.216192,,,,,
4709,4709,Taniata / de St-J.-Chrysostome,,46.734579,-71.210507,,,,,
4834,4834,Taniata / Fontaine,,46.722171,-71.199886,,,,,
4713,4713,Taniata / du P.-Industriel,,46.732239,-71.208563,,,,,
4838,4838,Taniata / A.-Lambert,,46.719882,-71.198023,,,,,
4842,4842,P.-Beaumont / Taniata,,46.718601,-71.197510,,,,,
4937,4937,de la Prairie / d'Orion,,46.725766,-71.216417,,,,,
4846,4846,P.-Beaumont / des Roches,,46.717828,-71.199465,,,,,
160110,16-110,d'Orion / de la Licorne,,46.728461,-71.219304,,,,,
160120,16-120,de Centaure / de Cassiopée,,46.726273,-71.223104,,,,,
160130,16-130,du Centaure / de Céphée,,46.724160,-71.222019,,,,,
4938,4938,École l'Horizon,,46.725536,-71.216557,,,,,
4932,4932,de la Prairie / de la Menthe,,46.727584,-71.211997,,,,,
160160,16-160,de la Menthe / de la Lavande,,46.724180,-71.210572,,,,,
160170,16-170,de la Lavande / de la Marjolaine,,46.725097,-71.206794,,,,,
160175,16-175,P.-Beaumont / De Vinci,,46.714794,-71.205850,,,,,
160180,16-180,du Basilic / Taniata,,46.724898,-71.202647,,,,,
160185,16-185,des Champs / P.-Beaumont,,46.713487,-71.208416,,,,,
4729,4729,Taniata / de la R.-Etchemin,,46.724281,-71.201973,,,,,
160195,16-195,des Champs / Picasso,,46.712406,-71.206905,,,,,
4733,4733,Taniata / Fontaine,,46.721406,-71.199499,,,,,
160205,16-205,des Champs / de Chamonix,,46.711594,-71.204333,,,,,
4737,4737,Taniata / A.-Lambert,,46.719950,-71.198286,,,,,
160215,16-215,des Champs / de Capri,,46.711525,-71.201811,,,,,
4741,4741,P.-Beaumont / Taniata,,46.718919,-71.197434,,,,,
4858,4858,des Champs / de la Colombière,,46.711486,-71.199795,,,,,
4745,4745,P.-Beaumont / C.-Couture,,46.717697,-71.200336,,,,,
4862,4862,des Champs / des Libellules,,46.712033,-71.197174,,,,,
4749,4749,P.-Beaumont / de la Colombière,,46.716611,-71.202634,,,,,
4866,4866,des Champs / Figaro,,46.712767,-71.195568,,,,,
4870,4870,des Champs / Taniata,,46.713608,-71.193664,,,,,
4874,4874,Taniata / J.-Fouquet,,46.715679,-71.194797,,,,,
4878,4878,de la Coulée / P.-H.-Brisson,,46.717110,-71.192562,,,,,
4882,4882,de la Coulée / Cadoret,,46.718006,-71.190584,,,,,
4886,4886,de la Coulée / de la Manche,,46.718785,-71.188890,,,,,
160300,16-300,P.-Beaumont / des Champs,,46.713633,-71.208535,,,,,
4890,4890,Vanier / de la Coulée,,46.720254,-71.185885,,,,,
160310,16-310,des Champs / Picasso,,46.712424,-71.207200,,,,,
4894,4894,Vanier / de la Bergerie,,46.721323,-71.187329,,,,,
160320,16-320,des Champs / de Chamonix,,46.711563,-71.205394,,,,,
4898,4898,Vanier / P.-Beaumont,,46.722672,-71.189133,,,,,
160330,16-330,des Champs / de Capri,,46.711406,-71.202068,,,,,
4302,4302,Vanier / du Trappeur,,46.725228,-71.192101,,,,,
160340,16-340,des Champs / de la Colombière,,46.711357,-71.200368,,,,,
4306,4306,Vanier / de la R.-Etchemin,,46.726681,-71.193878,,,,,
4761,4761,des Champs / des Libellules,,46.711771,-71.197392,,,,,
4310,4310,Vanier / des Cormiers,,46.727964,-71.196036,,,,,
4765,4765,des Champs / Figaro,,46.712569,-71.195671,,,,,
4314,4314,Vanier - arrêt 4314,,46.729339,-71.198334,,,,,
4769,4769,des Champs / Taniata,,46.713383,-71.193884,,,,,
4318,4318,Vanier / des Pommes,,46.730302,-71.199817,,,,,
4322,4322,Vanier / des Canetons,,46.731537,-71.201576,,,,,
4901,4901,Taniata / Manic,,46.704385,-71.185382,,,,,
4326,4326,École les Mousserons,,46.732952,-71.203575,,,,,
4905,4905,Manic / Beauharnois,,46.703250,-71.187722,,,,,
4330,4330,Vanier / de la Prairie,,46.733977,-71.205036,,,,,
4909,4909,Carillon / Ste-Hélène,,46.700571,-71.186643,,,,,
4913,4913,Ste-Hélène / Taniata,,46.701913,-71.183359,,,,,
4915,4915,Taniata - arrêt 4915,,46.703298,-71.184241,,,,,
4917,4917,Taniata / Manic,,46.704281,-71.185079,,,,,
4921,4921,Taniata / des Champs,,46.713700,-71.192972,,,,,
4773,4773,Taniata / de la Coulée,,46.715894,-71.194789,,,,,
4338,4338,de St-J.-Chrysostome / Vanier,,46.736020,-71.208006,,,,,
4777,4777,de la Coulée / P.-H.-Brisson,,46.716946,-71.192592,,,,,
4342,4342,Taniata / de St-J.-Chrysostome,,46.735172,-71.209915,,,,,
4781,4781,de la Coulée / Cadoret,,46.717681,-71.190982,,,,,
4785,4785,de la Coulée / de la Manche,,46.718667,-71.188816,,,,,
4789,4789,de la Coulée / Vanier,,46.720079,-71.185767,,,,,
160495,16-495,de St-Romuald / Beaupré,,46.751897,-71.230729,,,,,
4793,4793,Vanier / de la Bergerie,,46.721310,-71.187026,,,,,
4797,4797,Vanier / P.-Beaumont,,46.722509,-71.188641,,,,,
4201,4201,Vanier / du Trappeur,,46.725210,-71.191831,,,,,
4205,4205,Vanier / de la R.-Etchemin,,46.726569,-71.193406,,,,,
4209,4209,Vanier / des Cormiers,,46.727901,-71.195606,,,,,
4213,4213,Vanier - arrêt 4213,,46.729404,-71.198136,,,,,
4217,4217,Vanier / des Pommes,,46.730128,-71.199263,,,,,
4221,4221,Vanier / des Canetons,,46.731540,-71.201273,,,,,
4225,4225,École les Mousserons,,46.732795,-71.203052,,,,,
4229,4229,Vanier / de la Prairie,,46.733980,-71.204716,,,,,
4706,4706,Taniata - arrêt 4706,,46.736376,-71.212210,,,,,
4702,4702,Taniata / Beaudoin,,46.737315,-71.215405,,,,,
5718,5718,Taniata / 5e Rue,,46.742484,-71.224315,,,,,
5714,5714,Taniata / 4e Rue,,46.744648,-71.227486,,,,,
5710,5710,Taniata / 3e Rue,,46.747142,-71.231120,,,,,
5706,5706,Taniata / Beaupré,,46.749199,-71.234104,,,,,
5486,5486,du Sault / St-Eustache,,46.752652,-71.241377,,,,,
5485,5485,du Sault / St-Eustache,,46.752417,-71.242189,,,,,
5490,5490,du Sault / Longwood,,46.751628,-71.244060,,,,,
5489,5489,du Sault / Longwood,,46.751807,-71.244088,,,,,
5494,5494,du Sault / Côte Rouge,,46.750957,-71.247157,,,,,
5493,5493,du Sault / Côte Rouge,,46.750997,-71.247504,,,,,
5902,5902,du Sault / Wilson,,46.748402,-71.250863,,,,,
5497,5497,du Sault / Desneiges,,46.750035,-71.249317,,,,,
5906,5906,du Sault - arrêt 5906,,46.747290,-71.252163,,,,,
5901,5901,du Sault / Wilson,,46.748634,-71.250846,,,,,
5910,5910,du Sault / Sévigny,,46.745790,-71.254376,,,,,
5905,5905,du Sault - arrêt 5905,,46.747363,-71.252325,,,,,
5914,5914,du Sault / M.-L.-Genest,,46.744734,-71.256073,,,,,
5909,5909,du Sault / des Buissons,,46.746136,-71.254086,,,,,
5918,5918,du Sault / du Verger,,46.743393,-71.258319,,,,,
5913,5913,du Sault / M.-L.-Genest,,46.744955,-71.255998,,,,,
5922,5922,du Sault / de l'Élizabeth,,46.741869,-71.262172,,,,,
5917,5917,du Sault / du Verger,,46.743621,-71.258176,,,,,
170125,17-125,du C.-Dupont / du Sault,,46.741037,-71.266372,,,,,
5921,5921,du Sault / de l'Élizabeth,,46.742098,-71.261762,,,,,
170135,17-135,du C.-Dupont / des Caps,,46.742365,-71.268412,,,,,
5925,5925,du Sault / du C.-Dupont,,46.741087,-71.266043,,,,,
5929,5929,du Sault / du Cran,,46.739730,-71.269061,,,,,
5933,5933,du Sault / P.-É.-Dubé Nord,,46.738673,-71.270278,,,,,
170155,17-155,du C.-Dupont / de l'Étang Ouest,,46.742490,-71.273656,,,,,
5937,5937,du Sault - arrêt 5937,,46.737559,-71.271503,,,,,
170165,17-165,du Fleuve / Côte Garneau,,46.743841,-71.274025,,,,,
5941,5941,du Sault / de l'École,,46.736331,-71.272096,,,,,
5945,5945,du Sault / É.-Curodeau,,46.734855,-71.272208,,,,,
170185,17-185,du Fleuve - arrêt 17-0185,,46.745122,-71.269913,,,,,
5949,5949,École de l'Aubier,,46.733504,-71.271681,,,,,
5950,5950,École de l'Aubier,,46.733461,-71.271315,,,,,
170205,17-205,du Fleuve / Hardy,,46.746700,-71.264751,,,,,
5946,5946,du Sault / É.-Curodeau,,46.734671,-71.271994,,,,,
5942,5942,du Sault / P.-É.-Dubé Sud,,46.736028,-71.272002,,,,,
170225,17-225,du Fleuve / St-Damase,,46.748616,-71.258709,,,,,
5938,5938,du Sault - arrêt 5938,,46.737790,-71.271178,,,,,
5934,5934,du Sault / P.-É.-Dubé Nord,,46.738866,-71.269871,,,,,
5930,5930,du Sault / du Cran,,46.739703,-71.268843,,,,,
5926,5926,du Sault / Kathleen,,46.741030,-71.265738,,,,,
170255,17-255,du Fleuve / Côte Rouge,,46.753291,-71.248612,,,,,
5234,5234,du C.-Dupont / des Caps,,46.742386,-71.268003,,,,,
170265,17-265,du Fleuve / Barrette,,46.755321,-71.246389,,,,,
5473,5473,du Fleuve / T.-Hallé,,46.756280,-71.243427,,,,,
5230,5230,du C.-Dupont / de l'Étang Ouest,,46.742743,-71.273163,,,,,
5469,5469,du Fleuve / du Collège,,46.757353,-71.241606,,,,,
5226,5226,Côte Garneau / du Fleuve,,46.743813,-71.273818,,,,,
5465,5465,du Fleuve / de St-Romuald,,46.758384,-71.239673,,,,,
5461,5461,du Fleuve / St-Claude,,46.759063,-71.237849,,,,,
5222,5222,du Fleuve - arrêt 5222,,46.745019,-71.269885,,,,,
5218,5218,du Fleuve / Hardy,,46.746649,-71.264507,,,,,
5214,5214,du Fleuve / St-Damase,,46.748498,-71.258726,,,,,
5210,5210,du Fleuve - arrêt 5210,,46.750268,-71.252318,,,,,
5437,5437,Bellevue / des Trappistines,,46.756762,-71.224146,,,,,
5433,5433,Leduc / Bellevue,,46.755097,-71.227027,,,,,
5206,5206,du Fleuve / Côte Rouge,,46.753247,-71.248457,,,,,
5429,5429,Parc du Paysan,,46.753846,-71.225199,,,,,
170400,17-400,du Fleuve / Barrette,,46.755232,-71.246079,,,,,
5425,5425,Beaumont / Leduc,,46.751567,-71.222391,,,,,
5474,5474,du Fleuve / T.-Hallé,,46.756364,-71.243025,,,,,
5470,5470,du Fleuve / du Collège,,46.757221,-71.241583,,,,,
5466,5466,du Fleuve / de St-Romuald,,46.758175,-71.239785,,,,,
170435,17-435,de St-Romuald / 4e Rue,,46.747396,-71.224189,,,,,
5462,5462,du Fleuve / St-Claude,,46.759006,-71.237716,,,,,
170445,17-445,de St-Romuald / Beaumont,,46.748856,-71.226332,,,,,
170455,17-455,de St-Romuald / 3e Rue,,46.750115,-71.228139,,,,,
5438,5438,des Trappistines / Bellevue,,46.756934,-71.224289,,,,,
5434,5434,Bellevue / Leduc,,46.755203,-71.227145,,,,,
5430,5430,Parc du Paysan,,46.753892,-71.225544,,,,,
5426,5426,Beaumont / Leduc,,46.751681,-71.222623,,,,,
5422,5422,Beaumont / Trudelle,,46.750513,-71.223249,,,,,
5417,5417,de St-Romuald / Trudelle,,46.747889,-71.224662,,,,,
5412,5412,de St-Romuald / 3e Rue,,46.749825,-71.227523,,,,,
170590,17-590,de St-Romuald / Beaupré,,46.751705,-71.230209,,,,,
6602,6602,des Églises / du C.-Hospitalier,,46.722108,-71.266522,,,,,
5501,5501,de la Concorde / G.-Couture,,46.730531,-71.275371,,,,,
6606,6606,École Les Etchemins,,46.721050,-71.266403,,,,,
5505,5505,du Sault / de la Concorde,,46.729882,-71.269351,,,,,
6610,6610,des Églises / F.-Demers,,46.717796,-71.268396,,,,,
6501,6501,des Églises / du C.-Hospitalier,,46.721962,-71.266796,,,,,
6614,6614,de l'E.-Vive / des Églises,,46.716621,-71.269975,,,,,
6505,6505,École Les Etchemins,,46.720675,-71.266628,,,,,
6618,6618,de l'E.-Vive/ du Confluent,,46.718476,-71.271920,,,,,
6509,6509,des Églises / F.-Demers,,46.718113,-71.268296,,,,,
6622,6622,de l'E.-Vive/ de l'Écume,,46.720187,-71.273774,,,,,
6513,6513,de l'E.-Vive/ A.-Malouin,,46.717015,-71.270147,,,,,
6626,6626,de l'E.-Vive / des Chutes,,46.722197,-71.275517,,,,,
6517,6517,de l'E.-Vive/ du Confluent,,46.718254,-71.271456,,,,,
6630,6630,des Chutes / du Tourbillon,,46.720760,-71.277848,,,,,
6521,6521,de l'E.-Vive/ de l'Écume,,46.720119,-71.273517,,,,,
6634,6634,des Chutes / de la Marée,,46.719555,-71.277329,,,,,
6525,6525,de l'E.-Vive / des Chutes,,46.722330,-71.275303,,,,,
6638,6638,des Chutes / de l'Écluse,,46.717742,-71.276164,,,,,
6529,6529,des Chutes / du Tourbillon,,46.720741,-71.278062,,,,,
6642,6642,des Chutes / J.-Hudon,,46.716085,-71.277008,,,,,
6533,6533,des Chutes / du Rapide,,46.719652,-71.277690,,,,,
6537,6537,des Chutes / de l'Écluse,,46.718083,-71.276440,,,,,
6646,6646,Parc de la Rivière,,46.714063,-71.274496,,,,,
6541,6541,des Chutes / J.-Hudon,,46.716577,-71.277215,,,,,
6650,6650,des Églises / J.-Hudon,,46.712483,-71.272681,,,,,
6545,6545,Parc de la Rivière,,46.714419,-71.275207,,,,,
6654,6654,de la Traverse / du Rail,,46.710514,-71.273427,,,,,
6549,6549,J.-Hudon / des Églises,,46.712639,-71.272749,,,,,
6658,6658,des Générations / du Cantonnier,,46.709944,-71.271690,,,,,
6553,6553,des Églises / de la Traverse,,46.711194,-71.274301,,,,,
6662,6662,des Générations / de Charny,,46.711573,-71.269241,,,,,
6557,6557,de la Traverse / des Générations,,46.709459,-71.272441,,,,,
6666,6666,des Générations / de l'Harmonie,,46.712872,-71.267336,,,,,
6559,6559,des Générations / du Conducteur,,46.710366,-71.270888,,,,,
6670,6670,des Générations / de la Rapsodie,,46.714130,-71.265493,,,,,
6561,6561,des Générations / de Charny,,46.711387,-71.269336,,,,,
6674,6674,des Générations / de la Symphonie,,46.715932,-71.262844,,,,,
6565,6565,des Générations / de l'Harmonie,,46.712736,-71.267339,,,,,
6678,6678,des Générations / du M.-Joffre,,46.717055,-71.260647,,,,,
6569,6569,des Générations / de la Rapsodie,,46.713801,-71.265748,,,,,
6682,6682,des Générations / des Giroflées,,46.717960,-71.259333,,,,,
6573,6573,des Générations / de la Symphonie,,46.715867,-71.262640,,,,,
6686,6686,des Générations / des P.-Neige,,46.719557,-71.257009,,,,,
6577,6577,des Générations / du M.-Joffre,,46.717016,-71.260995,,,,,
6690,6690,des Générations / des Tourtes,,46.721208,-71.254616,,,,,
6581,6581,des Générations / des Giroflées,,46.717667,-71.259478,,,,,
6694,6694,des Éperviers / des Générations,,46.722052,-71.253444,,,,,
6585,6585,des Générations / des P.-Neige,,46.719154,-71.257306,,,,,
6698,6698,des Éperviers / des B.-Amours,,46.723731,-71.255195,,,,,
6589,6589,des Générations / des Tourtes,,46.720817,-71.254873,,,,,
6202,6202,des B.-Amours / du C.-Hospitalier,,46.725200,-71.252793,,,,,
6593,6593,des Générations / des Éperviers,,46.721902,-71.253312,,,,,
6206,6206,Centre hospitalier P.-Gilbert,,46.724503,-71.257649,,,,,
6597,6597,des Éperviers / des B.-Amours,,46.723505,-71.255245,,,,,
6301,6301,des B.-Amours / du C.-Hospitalier,,46.725233,-71.252501,,,,,
6305,6305,Centre hospitalier P.-Gilbert,,46.724668,-71.257798,,,,,
6309,6309,du C.-Hospitalier / des P.-Neige,,46.723683,-71.261999,,,,,
6313,6313,du C.-Hospitalier / des Églises,,46.722680,-71.265826,,,,,
5510,5510,de la Concorde / du Sault,,46.728697,-71.270426,,,,,
5506,5506,de la Concorde - arrêt 5506,,46.727584,-71.272736,,,,,
5502,5502,de la Concorde / des Promenades,,46.728989,-71.273832,,,,,
190230,19-230,Ste-Hélène - arrêt 19-0230,,46.679608,-71.218127,,,,,
190395,19-395,des Églises / de Charny,,46.713781,-71.271493,,,,,
190560,19-560,des Églises / de Charny,,46.713610,-71.271466,,,,,
190580,19-580,des Églises / de l'E.-Vive,,46.716320,-71.269731,,,,,
510005,51-005,des Îles - arrêt T1-0005,,46.767167,-71.197761,,,,,
510010,51-010,des Îles - arrêt T1-0010,,46.766320,-71.197122,,,,,
510020,51-020,des Îles - arrêt T1-0020,,46.762594,-71.191712,,,,,
510025,51-025,des Îles - arrêt T1-0025,,46.762518,-71.191145,,,,,
510030,51-030,des Îles / Alexandre,,46.760955,-71.189312,,,,,
510035,51-035,des Îles / Alexandre,,46.760163,-71.187699,,,,,
510040,51-040,des Îles / de l'Etchemin,,46.754766,-71.180142,,,,,
510043,51-043,des Îles / de l'Etchemin,,46.754983,-71.180122,,,,,
510045,51-045,des Îles / des Fougères,,46.752552,-71.176721,,,,,
510050,51-050,des Fougères / des Îles,,46.753180,-71.176885,,,,,
510060,51-060,des Fougères - arrêt T1-0060,,46.754543,-71.175509,,,,,
510070,51-070,des Fougères - arrêt T1-0070,,46.756218,-71.173833,,,,,
510080,51-080,des Fougères / des Lierres,,46.757706,-71.172356,,,,,
510090,51-090,des Fougères - arrêt T1-0090,,46.759851,-71.170203,,,,,
510100,51-100,des Trèfles -arrêt T1-0100,,46.759086,-71.170079,,,,,
510110,51-110,des Trèfles / des Lierres,,46.757595,-71.171580,,,,,
510120,51-120,des Sureaux / des Lierres Est,,46.756542,-71.171499,,,,,
510130,51-130,des Sureaux / des Lierres Ouest,,46.754638,-71.172892,,,,,
510140,51-140,des Sureaux / des Îles,,46.752501,-71.175067,,,,,
511130,51-130,G.-Couture / St-Joseph,,46.822812,-71.115293,,,,,
511185,51-185,G.-Couture / St-Joseph,,46.822998,-71.116123,,,,,
520005,52-005,St-Laurent / G.-Couture,,46.762366,-71.224559,,,,,
520008,52-008,St-Laurent / Gravel,,46.762824,-71.224558,,,,,
520010,52-010,St-Laurent / des Berges,,46.764182,-71.224234,,,,,
520015,52-015,St-Laurent / des Berges,,46.764339,-71.224330,,,,,
520020,52-020,St-Laurent / de la T.-du-Fleuve Ouest,,46.764854,-71.223085,,,,,
520025,52-025,St-Laurent / de la T.-du-Fleuve Ouest,,46.764940,-71.223374,,,,,
520030,52-030,St-Laurent / de la T.-du-Fleuve Est,,46.766032,-71.220091,,,,,
520035,52-035,St-Laurent / de la T.-du-Fleuve Est,,46.765958,-71.220748,,,,,
520040,52-040,St-Laurent / L'Hébreux,,46.766797,-71.218058,,,,,
520045,52-045,St-Laurent / L'Hébreux,,46.766750,-71.218686,,,,,
520050,52-050,St-Laurent - arrêt T2-0050,,46.767933,-71.216959,,,,,
520055,52-055,St-Laurent - arrêt T2-0055,,46.768042,-71.217113,,,,,
520060,52-060,St-Laurent - arrêt T2-0060,,46.769676,-71.214070,,,,,
520065,52-065,St-Laurent - arrêt T2-0065,,46.769764,-71.214110,,,,,
520070,52-070,Anse Hadlow,,46.771075,-71.211656,,,,,
520075,52-075,Anse Hadlow,,46.771132,-71.211920,,,,,
520080,52-080,St-Laurent / Jalbert,,46.771966,-71.210021,,,,,
520085,52-085,St-Laurent / Jalbert,,46.772138,-71.209955,,,,,
520090,52-090,St-Laurent / du B.-de-l'Eau,,46.772839,-71.208144,,,,,
520095,52-095,St-Laurent / du B.-de-l'Eau,,46.772856,-71.208390,,,,,
520100,52-100,St-Laurent / H.-Atkinson,,46.774261,-71.205990,,,,,
520105,52-105,St-Laurent / H.-Atkinson,,46.774342,-71.206092,,,,,
520110,52-110,Anse Fréchette,,46.776503,-71.203958,,,,,
520115,52-115,Anse Fréchette,,46.776486,-71.204108,,,,,
520120,52-120,St-Laurent - arrêt T2-0120,,46.777808,-71.203144,,,,,
520125,52-125,St-Laurent - arrêt T2-0125,,46.777739,-71.203286,,,,,
520130,52-130,St-Laurent / Hallé,,46.779182,-71.202195,,,,,
520135,52-135,St-Laurent / Hallé,,46.779430,-71.202278,,,,,
520140,52-140,St-Laurent - arrêt T2-0140,,46.780947,-71.201540,,,,,
520145,52-145,St-Laurent - arrêt T2-0145,,46.781118,-71.201605,,,,,
520150,52-150,St-Laurent - arrêt T2-0150,,46.782614,-71.198137,,,,,
520155,52-155,St-Laurent - arrêt T2-0155,,46.782656,-71.198312,,,,,
520160,52-160,St-Laurent - arrêt T2-0160,,46.783492,-71.196633,,,,,
520165,52-165,St-Laurent - arrêt T2-0165,,46.783505,-71.196858,,,,,
520170,52-170,Maison Louis Fréchette,,46.785209,-71.195219,,,,,
520175,52-175,Maison Louis Fréchette,,46.784741,-71.195621,,,,,
520180,52-180,St-Laurent / Baron,,46.786416,-71.195154,,,,,
520185,52-185,St-Laurent / Baron,,46.786164,-71.195276,,,,,
520190,52-190,St-Laurent / Patton,,46.787967,-71.195114,,,,,
520195,52-195,St-Laurent / Patton,,46.788201,-71.195215,,,,,
520200,52-200,Parc nautique de Lévy,,46.789494,-71.194665,,,,,
520205,52-205,Parc nautique de Lévy,,46.789501,-71.194830,,,,,
520210,52-210,Anse Windsor,,46.790388,-71.193450,,,,,
520215,52-215,Anse Windsor,,46.790451,-71.193539,,,,,
520220,52-220,St-Laurent - arrêt T2-0220,,46.792472,-71.192824,,,,,
520225,52-225,St-Laurent - arrêt T2-0225,,46.792590,-71.192909,,,,,
520230,52-230,St-Laurent - arrêt T2-0230,,46.794297,-71.190916,,,,,
520235,52-235,St-Laurent - arrêt T2-0235,,46.794253,-71.191191,,,,,
520240,52-240,St-Laurent / Côte Rochette,,46.795826,-71.189836,,,,,
520245,52-245,St-Laurent / Côte Rochette,,46.795567,-71.190177,,,,,
520250,52-250,Parc de l'Anse à Tibitts,,46.796535,-71.190944,,,,,
520255,52-255,Parc de l'Anse à Tibitts,,46.796429,-71.190982,,,,,
520260,52-260,Anse Tibbits,,46.798453,-71.191012,,,,,
520265,52-265,Anse Tibbits,,46.798155,-71.191260,,,,,
520270,52-270,Anse Russell,,46.803760,-71.188204,,,,,
520275,52-275,Anse Russell,,46.803999,-71.188241,,,,,
520280,52-280,St-Laurent - arrêt T2-0280,,46.805410,-71.187447,,,,,
520285,52-285,St-Laurent - arrêt T2-0285,,46.806306,-71.187485,,,,,
520290,52-290,Anse Rhodes,,46.807997,-71.187181,,,,,
520295,52-295,Anse Rhodes,,46.807968,-71.187349,,,,,
970018,97-018,P.-Beaumont / de la Colombière,,46.716175,-71.202998,,,,,
6214,6214,du C.-Hospitalier / des Églises,,46.722594,-71.265287,,,,,
6210,6210,du C.-Hospitalier / des P.-Neige,,46.723351,-71.262550,,,,,
970022,97-022,Massenet / Bizet,,46.792438,-71.160523,,,,,
970026,97-026,Gravel / A.-Bolduc,,46.765499,-71.205036,,,,,
970027,97-027,Gravel / de B.-Guillaume,,46.762853,-71.214281,,,,,
970028,97-028,Gravel / de Belmont,,46.762663,-71.217879,,,,,
970029,97-029,Gravel / de Belmont,,46.762770,-71.217914,,,,,
970030,97-030,Gravel / de B.-Guillaume,,46.762738,-71.214212,,,,,
970031,97-031,Gravel / St-Télesphore,,46.763394,-71.211745,,,,,
970032,97-032,Gravel / St-Télesphore,,46.763281,-71.211720,,,,,
970033,97-033,Gravel / E.-Bégin,,46.764286,-71.209377,,,,,
970034,97-034,Gravel / E.-Bégin,,46.764326,-71.208952,,,,,
970038,97-038,Juvénat N.-Dame,,46.761106,-71.236503,,,,,
970039,97-039,Gravel / A.-Bolduc,,46.765316,-71.205368,,,,,
4717,4717,Taniata / de la Prairie,,46.729796,-71.206519,,,,,
4721,4721,Parc Champigny,,46.727644,-71.204708,,,,,
4725,4725,Taniata / Champigny,,46.725973,-71.203382,,,,,
4233,4233,Vanier / Dumas,,46.735155,-71.206384,,,,,
4237,4237,Vanier / de St-J.-Chrysostome,,46.736090,-71.207732,,,,,
4822,4822,Parc Champigny,,46.727526,-71.204357,,,,,
4818,4818,Taniata / de la Prairie,,46.730464,-71.206774,,,,,
4826,4826,Taniata / Champigny,,46.725952,-71.203038,,,,,
990108,,Institut de cardiologie et de pneumologie,,46.777469,-71.294595,,,,,
990109,,Cégep Garneau,,46.790315,-71.265836,,,,,
990110,,Cégep Garneau,,46.790651,-71.265225,,,,,
990228,99-228,Gravel / St-Laurent,,46.763120,-71.224622,,,,,
3801,3801,Société de transport de Lévis,,46.804173,-71.160144,,,,,
110288,11-288,des Riveurs / Lallemand,,46.814328,-71.104725,,,,,2
3175,3175,H.-Dieu de Lévis - St-Omer,,46.815659,-71.176104,,,,,1
3948,3948,T.-Chapais / des Rubis,,46.778632,-71.188462,,,,,
3999,3999,Stationnement Desjardins,,46.806407,-71.166996,,,,,
5999,5999,Complexe 2 Glaces Honco,,46.748457,-71.233030,,,,,
8999,8999,Aréna BSR,,46.704726,-71.295499,,,,,
9999,9999,CFP Marie-Rollet,,46.768138,-71.296892,,,,,
4999,4999,du Basilic / du Fenouil,,46.724313,-71.204321,,,,,
9998,9998,Gare fluviale de Québec,,46.812320,-71.202272,,,,,1
3175T,3175,H.-Dieu de Lévis - porte centrale,,46.815344,-71.177654,,,,,1